[{"stop_id":"10004","stop_code":"10004","stop_name":"Mitthoefer Rd & John Marshall Dr N","stop_desc":"","stop_lat":"  39.822312","stop_lon":" -85.990967","zone_id":"","stop_url":"","location_type":"0","parent_station":""},
{"stop_id":"10005","stop_code":"10005","stop_name":"38th St & Mitthoefer Rd","stop_desc":"","stop_lat":"  39.826339","stop_lon":" -85.992033","zone_id":"","stop_url":"","location_type":"0","parent_station":""},
{"stop_id":"10006","stop_code":"10006","stop_name":"38th St & Strathmore Dr","stop_desc":"","stop_lat":"  39.826270","stop_lon":" -85.995080","zone_id":"","stop_url":"","location_type":"0","parent_station":""},
{"stop_id":"10008","stop_code":"10008","stop_name":"38th St & Parliament Ln","stop_desc":"","stop_lat":"  39.826215","stop_lon":" -86.000684","zone_id":"","stop_url":"","location_type":"0","parent_station":""},
{"stop_id":"10009","stop_code":"10009","stop_name":"38th St & Wittfield St","stop_desc":"","stop_lat":"  39.826164","stop_lon":" -86.005035","zone_id":"","stop_url":"","location_type":"0","parent_station":""},
{"stop_id":"10011","stop_code":"10011","stop_name":"38th St & Post Rd","stop_desc":"","stop_lat":"  39.826150","stop_lon":" -86.008129","zone_id":"","stop_url":"","location_type":"0","parent_station":""},
{"stop_id":"10012","stop_code":"10012","stop_name":"38th St & Post Rd - Northeastwood","stop_desc":"","stop_lat":"  39.826144","stop_lon":" -86.011924","zone_id":"","stop_url":"","location_type":"0","parent_station":""},
{"stop_id":"10013","stop_code":"10013","stop_name":"38th St & Biscayne Rd","stop_desc":"","stop_lat":"  39.826100","stop_lon":" -86.013626","zone_id":"","stop_url":"","location_type":"0","parent_station":""},
{"stop_id":"10015","stop_code":"10015","stop_name":"38th St & Marseille Rd","stop_desc":"","stop_lat":"  39.826047","stop_lon":" -86.017834","zone_id":"","stop_url":"","location_type":"0","parent_station":""},
{"stop_id":"10016","stop_code":"10016","stop_name":"38th St & Alsace Pl","stop_desc":"","stop_lat":"  39.826060","stop_lon":" -86.019899","zone_id":"","stop_url":"","location_type":"0","parent_station":""},
{"stop_id":"10017","stop_code":"10017","stop_name":"38th St & Harvest Ave","stop_desc":"","stop_lat":"  39.826022","stop_lon":" -86.022174","zone_id":"","stop_url":"","location_type":"0","parent_station":""},
{"stop_id":"10019","stop_code":"10019","stop_name":"Mitthoefer Rd - 3900 N","stop_desc":"","stop_lat":"  39.826893","stop_lon":" -85.990992","zone_id":"","stop_url":"","location_type":"0","parent_station":""},
{"stop_id":"10020","stop_code":"10020","stop_name":"Mitthoefer Rd & Catalina Dr","stop_desc":"","stop_lat":"  39.828884","stop_lon":" -85.991066","zone_id":"","stop_url":"","location_type":"0","parent_station":""},
{"stop_id":"10021","stop_code":"10021","stop_name":"Mitthoefer Rd & Montery Rd","stop_desc":"","stop_lat":"  39.830706","stop_lon":" -85.991089","zone_id":"","stop_url":"","location_type":"0","parent_station":""},
{"stop_id":"10022","stop_code":"10022","stop_name":"Mitthoefer Rd & Ellis Dr","stop_desc":"","stop_lat":"  39.832529","stop_lon":" -85.991115","zone_id":"","stop_url":"","location_type":"0","parent_station":""},
{"stop_id":"10023","stop_code":"10023","stop_name":"42nd St & Mitthoefer Rd","stop_desc":"","stop_lat":"  39.833702","stop_lon":" -85.992014","zone_id":"","stop_url":"","location_type":"0","parent_station":""},
{"stop_id":"10024","stop_code":"10024","stop_name":"42nd St & Burrwood Dr","stop_desc":"","stop_lat":"  39.833615","stop_lon":" -85.997255","zone_id":"","stop_url":"","location_type":"0","parent_station":""},
{"stop_id":"10025","stop_code":"10025","stop_name":"42nd St & Baker Dr","stop_desc":"","stop_lat":"  39.833552","stop_lon":" -85.999203","zone_id":"","stop_url":"","location_type":"0","parent_station":""},
{"stop_id":"10026","stop_code":"10026","stop_name":"42nd St & Stouffer Ln","stop_desc":"","stop_lat":"  39.833523","stop_lon":" -86.001631","zone_id":"","stop_url":"","location_type":"0","parent_station":""},
{"stop_id":"10027","stop_code":"10027","stop_name":"42nd St & Cordell St","stop_desc":"","stop_lat":"  39.833504","stop_lon":" -86.003533","zone_id":"","stop_url":"","location_type":"0","parent_station":""},
{"stop_id":"10028","stop_code":"10028","stop_name":"42nd St & Wittfield St","stop_desc":"","stop_lat":"  39.833484","stop_lon":" -86.004608","zone_id":"","stop_url":"","location_type":"0","parent_station":""},
{"stop_id":"10029","stop_code":"10029","stop_name":"42nd St & Torino Ct","stop_desc":"","stop_lat":"  39.833473","stop_lon":" -86.008468","zone_id":"","stop_url":"","location_type":"0","parent_station":""},
{"stop_id":"10030","stop_code":"10030","stop_name":"42nd St & Post Rd","stop_desc":"","stop_lat":"  39.833464","stop_lon":" -86.009621","zone_id":"","stop_url":"","location_type":"0","parent_station":""},
{"stop_id":"10032","stop_code":"10032","stop_name":"42nd St & Rue Lemans","stop_desc":"","stop_lat":"  39.833375","stop_lon":" -86.013616","zone_id":"","stop_url":"","location_type":"0","parent_station":""},
{"stop_id":"10033","stop_code":"10033","stop_name":"42nd St & Private Dr","stop_desc":"","stop_lat":"  39.833374","stop_lon":" -86.016073","zone_id":"","stop_url":"","location_type":"0","parent_station":""},
{"stop_id":"10035","stop_code":"10035","stop_name":"42nd St & Aspen Way","stop_desc":"","stop_lat":"  39.833357","stop_lon":" -86.019712","zone_id":"","stop_url":"","location_type":"0","parent_station":""},
{"stop_id":"10037","stop_code":"10037","stop_name":"42nd St & Arborcrest Dr","stop_desc":"","stop_lat":"  39.833328","stop_lon":" -86.023024","zone_id":"","stop_url":"","location_type":"0","parent_station":""},
{"stop_id":"10038","stop_code":"10038","stop_name":"Franklin Rd & 42nd St","stop_desc":"","stop_lat":"  39.832664","stop_lon":" -86.027151","zone_id":"","stop_url":"","location_type":"0","parent_station":""},
{"stop_id":"10039","stop_code":"10039","stop_name":"Franklin Rd & Crossbridge Dr","stop_desc":"","stop_lat":"  39.828187","stop_lon":" -86.027095","zone_id":"","stop_url":"","location_type":"0","parent_station":""},
{"stop_id":"10041","stop_code":"10041","stop_name":"38th St & Franklin Rd","stop_desc":"","stop_lat":"  39.825876","stop_lon":" -86.027674","zone_id":"","stop_url":"","location_type":"0","parent_station":""},
{"stop_id":"10043","stop_code":"10043","stop_name":"38th St & Richardt St","stop_desc":"","stop_lat":"  39.825811","stop_lon":" -86.036137","zone_id":"","stop_url":"","location_type":"0","parent_station":""},
{"stop_id":"10045","stop_code":"10045","stop_name":"38th St & Kercheval Dr","stop_desc":"","stop_lat":"  39.825829","stop_lon":" -86.040000","zone_id":"","stop_url":"","location_type":"0","parent_station":""},
{"stop_id":"10046","stop_code":"10046","stop_name":"38th St & Elmhurst Dr","stop_desc":"","stop_lat":"  39.825839","stop_lon":" -86.043034","zone_id":"","stop_url":"","location_type":"0","parent_station":""},
{"stop_id":"10047","stop_code":"10047","stop_name":"38th St & Shadeland Rd","stop_desc":"","stop_lat":"  39.825833","stop_lon":" -86.045519","zone_id":"","stop_url":"","location_type":"0","parent_station":""},
{"stop_id":"10048","stop_code":"10048","stop_name":"38th St & Massachusetts Ave","stop_desc":"","stop_lat":"  39.825782","stop_lon":" -86.048669","zone_id":"","stop_url":"","location_type":"0","parent_station":""},
{"stop_id":"10049","stop_code":"10049","stop_name":"38th St & Elizabeth St","stop_desc":"","stop_lat":"  39.825806","stop_lon":" -86.052273","zone_id":"","stop_url":"","location_type":"0","parent_station":""},
{"stop_id":"10050","stop_code":"10050","stop_name":"38th St & Sheridan Ave","stop_desc":"","stop_lat":"  39.825594","stop_lon":" -86.059784","zone_id":"","stop_url":"","location_type":"0","parent_station":""},
{"stop_id":"10051","stop_code":"10051","stop_name":"38th St - Value City","stop_desc":"","stop_lat":"  39.825569","stop_lon":" -86.062999","zone_id":"","stop_url":"","location_type":"0","parent_station":""},
{"stop_id":"10052","stop_code":"10052","stop_name":"38th St & Arlington Ave","stop_desc":"","stop_lat":"  39.825610","stop_lon":" -86.065548","zone_id":"","stop_url":"","location_type":"0","parent_station":""},
{"stop_id":"10053","stop_code":"10053","stop_name":"38th St & Graham Ave","stop_desc":"","stop_lat":"  39.825501","stop_lon":" -86.069098","zone_id":"","stop_url":"","location_type":"0","parent_station":""},
{"stop_id":"10055","stop_code":"10055","stop_name":"38th St & Lesley Ave","stop_desc":"","stop_lat":"  39.825493","stop_lon":" -86.072273","zone_id":"","stop_url":"","location_type":"0","parent_station":""},
{"stop_id":"10056","stop_code":"10056","stop_name":"38th St & Layman Ave","stop_desc":"","stop_lat":"  39.825495","stop_lon":" -86.073395","zone_id":"","stop_url":"","location_type":"0","parent_station":""},
{"stop_id":"10057","stop_code":"10057","stop_name":"38th St & Whittier Pl","stop_desc":"","stop_lat":"  39.825496","stop_lon":" -86.075307","zone_id":"","stop_url":"","location_type":"0","parent_station":""},
{"stop_id":"10058","stop_code":"10058","stop_name":"38th St & Irvington Ave","stop_desc":"","stop_lat":"  39.825505","stop_lon":" -86.076667","zone_id":"","stop_url":"","location_type":"0","parent_station":""},
{"stop_id":"10060","stop_code":"10060","stop_name":"38th St & Butler Ave","stop_desc":"","stop_lat":"  39.825534","stop_lon":" -86.080131","zone_id":"","stop_url":"","location_type":"0","parent_station":""},
{"stop_id":"10062","stop_code":"10062","stop_name":"38th St & Emerson Ave","stop_desc":"","stop_lat":"  39.825579","stop_lon":" -86.083532","zone_id":"","stop_url":"","location_type":"0","parent_station":""},
{"stop_id":"10063","stop_code":"10063","stop_name":"38th St & Riley Ave","stop_desc":"","stop_lat":"  39.825556","stop_lon":" -86.086341","zone_id":"","stop_url":"","location_type":"0","parent_station":""},
{"stop_id":"10064","stop_code":"10064","stop_name":"38th St & Dequincy St","stop_desc":"","stop_lat":"  39.825551","stop_lon":" -86.087665","zone_id":"","stop_url":"","location_type":"0","parent_station":""},
{"stop_id":"10066","stop_code":"10066","stop_name":"38th St & Arthington Blvd","stop_desc":"","stop_lat":"  39.825535","stop_lon":" -86.090549","zone_id":"","stop_url":"","location_type":"0","parent_station":""},
{"stop_id":"10068","stop_code":"10068","stop_name":"38th St & Linwood Ave","stop_desc":"","stop_lat":"  39.825510","stop_lon":" -86.093575","zone_id":"","stop_url":"","location_type":"0","parent_station":""},
{"stop_id":"10069","stop_code":"10069","stop_name":"38th St & Colorado Ave","stop_desc":"","stop_lat":"  39.825480","stop_lon":" -86.095840","zone_id":"","stop_url":"","location_type":"0","parent_station":""},
{"stop_id":"10070","stop_code":"10070","stop_name":"38th St & Forest Manor Ave","stop_desc":"","stop_lat":"  39.825456","stop_lon":" -86.097823","zone_id":"","stop_url":"","location_type":"0","parent_station":""},
{"stop_id":"10072","stop_code":"10072","stop_name":"38th St & Chester Ave","stop_desc":"","stop_lat":"  39.825412","stop_lon":" -86.100083","zone_id":"","stop_url":"","location_type":"0","parent_station":""},
{"stop_id":"10074","stop_code":"10074","stop_name":"38th St & Sherman Dr","stop_desc":"","stop_lat":"  39.825402","stop_lon":" -86.103437","zone_id":"","stop_url":"","location_type":"0","parent_station":""},
{"stop_id":"10076","stop_code":"10076","stop_name":"38th St & Olney St","stop_desc":"","stop_lat":"  39.825368","stop_lon":" -86.106534","zone_id":"","stop_url":"","location_type":"0","parent_station":""},
{"stop_id":"10078","stop_code":"10078","stop_name":"38th St & Lasalle St","stop_desc":"","stop_lat":"  39.825386","stop_lon":" -86.109778","zone_id":"","stop_url":"","location_type":"0","parent_station":""},
{"stop_id":"10079","stop_code":"10079","stop_name":"38th St & Dearborn St","stop_desc":"","stop_lat":"  39.825382","stop_lon":" -86.111558","zone_id":"","stop_url":"","location_type":"0","parent_station":""},
{"stop_id":"10080","stop_code":"10080","stop_name":"38th St & Parker Ave","stop_desc":"","stop_lat":"  39.825384","stop_lon":" -86.113296","zone_id":"","stop_url":"","location_type":"0","parent_station":""},
{"stop_id":"10081","stop_code":"10081","stop_name":"38th St & Meadows Dr","stop_desc":"","stop_lat":"  39.825435","stop_lon":" -86.115500","zone_id":"","stop_url":"","location_type":"0","parent_station":""},
{"stop_id":"10082","stop_code":"10082","stop_name":"38th St & Rural St","stop_desc":"","stop_lat":"  39.825401","stop_lon":" -86.116521","zone_id":"","stop_url":"","location_type":"0","parent_station":""},
{"stop_id":"10083","stop_code":"10083","stop_name":"38th St & Temple Ave","stop_desc":"","stop_lat":"  39.825369","stop_lon":" -86.118401","zone_id":"","stop_url":"","location_type":"0","parent_station":""},
{"stop_id":"10084","stop_code":"10084","stop_name":"38th St & Keystone Ave","stop_desc":"","stop_lat":"  39.825410","stop_lon":" -86.121342","zone_id":"","stop_url":"","location_type":"0","parent_station":""},
{"stop_id":"10085","stop_code":"10085","stop_name":"38th St & Hilside Ave","stop_desc":"","stop_lat":"  39.825453","stop_lon":" -86.123002","zone_id":"","stop_url":"","location_type":"0","parent_station":""},
{"stop_id":"10087","stop_code":"10087","stop_name":"38th St & Caroline Ave","stop_desc":"","stop_lat":"  39.825467","stop_lon":" -86.125676","zone_id":"","stop_url":"","location_type":"0","parent_station":""},
{"stop_id":"10088","stop_code":"10088","stop_name":"38th St & Orchard Ave","stop_desc":"","stop_lat":"  39.825457","stop_lon":" -86.128118","zone_id":"","stop_url":"","location_type":"0","parent_station":""},
{"stop_id":"10089","stop_code":"10089","stop_name":"38th St & Fall Creek Pkwy N Dr","stop_desc":"","stop_lat":"  39.825611","stop_lon":" -86.132342","zone_id":"","stop_url":"","location_type":"0","parent_station":""},
{"stop_id":"10091","stop_code":"10091","stop_name":"38th St & Coliseum Ave","stop_desc":"","stop_lat":"  39.825552","stop_lon":" -86.136631","zone_id":"","stop_url":"","location_type":"0","parent_station":""},
{"stop_id":"10092","stop_code":"10092","stop_name":"38th St & Winthrop Ave","stop_desc":"","stop_lat":"  39.825357","stop_lon":" -86.140767","zone_id":"","stop_url":"","location_type":"0","parent_station":""},
{"stop_id":"10093","stop_code":"10093","stop_name":"38th St & Guilford Ave","stop_desc":"","stop_lat":"  39.825219","stop_lon":" -86.142180","zone_id":"","stop_url":"","location_type":"0","parent_station":""},
{"stop_id":"10095","stop_code":"10095","stop_name":"38th St & College Ave","stop_desc":"","stop_lat":"  39.825176","stop_lon":" -86.144682","zone_id":"","stop_url":"","location_type":"0","parent_station":""},
{"stop_id":"10096","stop_code":"10096","stop_name":"38th St & Park Ave","stop_desc":"","stop_lat":"  39.825146","stop_lon":" -86.147210","zone_id":"","stop_url":"","location_type":"0","parent_station":""},
{"stop_id":"10098","stop_code":"10098","stop_name":"38th St & Central Ave","stop_desc":"","stop_lat":"  39.825107","stop_lon":" -86.150083","zone_id":"","stop_url":"","location_type":"0","parent_station":""},
{"stop_id":"10099","stop_code":"10099","stop_name":"38th St & Washington Blvd","stop_desc":"","stop_lat":"  39.825070","stop_lon":" -86.151835","zone_id":"","stop_url":"","location_type":"0","parent_station":""},
{"stop_id":"10100","stop_code":"10100","stop_name":"38th St & Delaware St","stop_desc":"","stop_lat":"  39.825056","stop_lon":" -86.153130","zone_id":"","stop_url":"","location_type":"0","parent_station":""},
{"stop_id":"10101","stop_code":"10101","stop_name":"Meridian St & 38th St","stop_desc":"","stop_lat":"  39.824483","stop_lon":" -86.156939","zone_id":"","stop_url":"","location_type":"0","parent_station":""},
{"stop_id":"10102","stop_code":"10102","stop_name":"Meridian St & 36th St","stop_desc":"","stop_lat":"  39.821279","stop_lon":" -86.156910","zone_id":"","stop_url":"","location_type":"0","parent_station":""},
{"stop_id":"10103","stop_code":"10103","stop_name":"Meridian St & 35th St","stop_desc":"","stop_lat":"  39.819517","stop_lon":" -86.156890","zone_id":"","stop_url":"","location_type":"0","parent_station":""},
{"stop_id":"10104","stop_code":"10104","stop_name":"Meridian St & 34th St","stop_desc":"","stop_lat":"  39.817625","stop_lon":" -86.156877","zone_id":"","stop_url":"","location_type":"0","parent_station":""},
{"stop_id":"10105","stop_code":"10105","stop_name":"Meridian St & 33rd St","stop_desc":"","stop_lat":"  39.815643","stop_lon":" -86.156852","zone_id":"","stop_url":"","location_type":"0","parent_station":""},
{"stop_id":"10106","stop_code":"10106","stop_name":"Meridian St & 32nd St","stop_desc":"","stop_lat":"  39.813971","stop_lon":" -86.156833","zone_id":"","stop_url":"","location_type":"0","parent_station":""},
{"stop_id":"10107","stop_code":"10107","stop_name":"Meridian St & 32nd St","stop_desc":"","stop_lat":"  39.812061","stop_lon":" -86.156812","zone_id":"","stop_url":"","location_type":"0","parent_station":""},
{"stop_id":"10108","stop_code":"10108","stop_name":"Meridian St & 30th St","stop_desc":"","stop_lat":"  39.810653","stop_lon":" -86.156781","zone_id":"","stop_url":"","location_type":"0","parent_station":""},
{"stop_id":"10109","stop_code":"10109","stop_name":"Meridian St & 29th St","stop_desc":"","stop_lat":"  39.808495","stop_lon":" -86.156773","zone_id":"","stop_url":"","location_type":"0","parent_station":""},
{"stop_id":"10110","stop_code":"10110","stop_name":"Meridian St & 28th St","stop_desc":"","stop_lat":"  39.806359","stop_lon":" -86.156782","zone_id":"","stop_url":"","location_type":"0","parent_station":""},
{"stop_id":"10111","stop_code":"10111","stop_name":"Meridian St & Fall Creek Pkwy N Dr","stop_desc":"","stop_lat":"  39.804981","stop_lon":" -86.156744","zone_id":"","stop_url":"","location_type":"0","parent_station":""},
{"stop_id":"10112","stop_code":"10112","stop_name":"Meridian St & Fall Creek Pkwy S Dr","stop_desc":"","stop_lat":"  39.802357","stop_lon":" -86.156782","zone_id":"","stop_url":"","location_type":"0","parent_station":""},
{"stop_id":"10114","stop_code":"10114","stop_name":"Meridian St & 23rd St","stop_desc":"","stop_lat":"  39.799080","stop_lon":" -86.157111","zone_id":"","stop_url":"","location_type":"0","parent_station":""},
{"stop_id":"10116","stop_code":"10116","stop_name":"Meridian St & Mc Lean Pl","stop_desc":"","stop_lat":"  39.796010","stop_lon":" -86.157421","zone_id":"","stop_url":"","location_type":"0","parent_station":""},
{"stop_id":"10117","stop_code":"10117","stop_name":"Meridian St & 20th St","stop_desc":"","stop_lat":"  39.793432","stop_lon":" -86.157413","zone_id":"","stop_url":"","location_type":"0","parent_station":""},
{"stop_id":"10118","stop_code":"10118","stop_name":"Meridian St & 19th St","stop_desc":"","stop_lat":"  39.792114","stop_lon":" -86.157414","zone_id":"","stop_url":"","location_type":"0","parent_station":""},
{"stop_id":"10119","stop_code":"10119","stop_name":"Meridian St & 18th St","stop_desc":"","stop_lat":"  39.790851","stop_lon":" -86.157370","zone_id":"","stop_url":"","location_type":"0","parent_station":""},
{"stop_id":"10120","stop_code":"10120","stop_name":"Meridian St & 16th St","stop_desc":"","stop_lat":"  39.787766","stop_lon":" -86.157380","zone_id":"","stop_url":"","location_type":"0","parent_station":""},
{"stop_id":"10121","stop_code":"10121","stop_name":"Meridian St & 14th St","stop_desc":"","stop_lat":"  39.785860","stop_lon":" -86.157459","zone_id":"","stop_url":"","location_type":"0","parent_station":""},
{"stop_id":"10122","stop_code":"10122","stop_name":"Meridian St & 13th St","stop_desc":"","stop_lat":"  39.783922","stop_lon":" -86.157545","zone_id":"","stop_url":"","location_type":"0","parent_station":""},
{"stop_id":"10123","stop_code":"10123","stop_name":"Meridian St & 11th St","stop_desc":"","stop_lat":"  39.782486","stop_lon":" -86.157584","zone_id":"","stop_url":"","location_type":"0","parent_station":""},
{"stop_id":"10124","stop_code":"10124","stop_name":"Meridian St & 10th St","stop_desc":"","stop_lat":"  39.780882","stop_lon":" -86.157644","zone_id":"","stop_url":"","location_type":"0","parent_station":""},
{"stop_id":"10125","stop_code":"10125","stop_name":"Meridian St & Saint Clair St","stop_desc":"","stop_lat":"  39.778131","stop_lon":" -86.157735","zone_id":"","stop_url":"","location_type":"0","parent_station":""},
{"stop_id":"10127","stop_code":"10127","stop_name":"Meridian St & North St","stop_desc":"","stop_lat":"  39.775704","stop_lon":" -86.157846","zone_id":"","stop_url":"","location_type":"0","parent_station":""},
{"stop_id":"10128","stop_code":"10128","stop_name":"Meridian St & Michigan St","stop_desc":"","stop_lat":"  39.773903","stop_lon":" -86.157890","zone_id":"","stop_url":"","location_type":"0","parent_station":""},
{"stop_id":"10129","stop_code":"10129","stop_name":"Meridian St & Vermont St","stop_desc":"","stop_lat":"  39.772475","stop_lon":" -86.157919","zone_id":"","stop_url":"","location_type":"0","parent_station":""},
{"stop_id":"10130","stop_code":"10130","stop_name":"Meridian St & New York St","stop_desc":"","stop_lat":"  39.771009","stop_lon":" -86.157937","zone_id":"","stop_url":"","location_type":"0","parent_station":""},
{"stop_id":"10131","stop_code":"10131","stop_name":"Ohio St & Illinois St","stop_desc":"","stop_lat":"  39.769946","stop_lon":" -86.158680","zone_id":"","stop_url":"","location_type":"0","parent_station":""},
{"stop_id":"10132","stop_code":"10132","stop_name":"Capitol Ave & Market St","stop_desc":"","stop_lat":"  39.768909","stop_lon":" -86.161753","zone_id":"","stop_url":"","location_type":"0","parent_station":""},
{"stop_id":"10133","stop_code":"10133","stop_name":"Maryland St & Pennsylvania St","stop_desc":"","stop_lat":"  39.765548","stop_lon":" -86.156678","zone_id":"","stop_url":"","location_type":"0","parent_station":""},
{"stop_id":"10135","stop_code":"10135","stop_name":"Ohio St & Pennsylvania St","stop_desc":"","stop_lat":"  39.769895","stop_lon":" -86.155890","zone_id":"","stop_url":"","location_type":"0","parent_station":""},
{"stop_id":"10136","stop_code":"10136","stop_name":"Ohio St & Meridian St","stop_desc":"","stop_lat":"  39.769923","stop_lon":" -86.157676","zone_id":"","stop_url":"","location_type":"0","parent_station":""},
{"stop_id":"10137","stop_code":"10137","stop_name":"Meridian St & Vermont St","stop_desc":"","stop_lat":"  39.772992","stop_lon":" -86.157784","zone_id":"","stop_url":"","location_type":"0","parent_station":""},
{"stop_id":"10138","stop_code":"10138","stop_name":"Meridian St & Michigan St","stop_desc":"","stop_lat":"  39.773889","stop_lon":" -86.157779","zone_id":"","stop_url":"","location_type":"0","parent_station":""},
{"stop_id":"10139","stop_code":"10139","stop_name":"Meridian St & North St","stop_desc":"","stop_lat":"  39.775844","stop_lon":" -86.157672","zone_id":"","stop_url":"","location_type":"0","parent_station":""},
{"stop_id":"10141","stop_code":"10141","stop_name":"Meridian St & Saint Clair St","stop_desc":"","stop_lat":"  39.777810","stop_lon":" -86.157611","zone_id":"","stop_url":"","location_type":"0","parent_station":""},
{"stop_id":"10142","stop_code":"10142","stop_name":"Meridian St & 10th St","stop_desc":"","stop_lat":"  39.780957","stop_lon":" -86.157477","zone_id":"","stop_url":"","location_type":"0","parent_station":""},
{"stop_id":"10143","stop_code":"10143","stop_name":"Meridian St & 11th St","stop_desc":"","stop_lat":"  39.782484","stop_lon":" -86.157396","zone_id":"","stop_url":"","location_type":"0","parent_station":""},
{"stop_id":"10144","stop_code":"10144","stop_name":"Meridian St & 13th St","stop_desc":"","stop_lat":"  39.784197","stop_lon":" -86.157347","zone_id":"","stop_url":"","location_type":"0","parent_station":""},
{"stop_id":"10145","stop_code":"10145","stop_name":"Meridian St & 14th St","stop_desc":"","stop_lat":"  39.785611","stop_lon":" -86.157293","zone_id":"","stop_url":"","location_type":"0","parent_station":""},
{"stop_id":"10146","stop_code":"10146","stop_name":"Meridian St & 16th St","stop_desc":"","stop_lat":"  39.787863","stop_lon":" -86.157199","zone_id":"","stop_url":"","location_type":"0","parent_station":""},
{"stop_id":"10147","stop_code":"10147","stop_name":"Meridian St & 18th St","stop_desc":"","stop_lat":"  39.790654","stop_lon":" -86.157226","zone_id":"","stop_url":"","location_type":"0","parent_station":""},
{"stop_id":"10149","stop_code":"10149","stop_name":"Meridian St & 20th St","stop_desc":"","stop_lat":"  39.793820","stop_lon":" -86.157252","zone_id":"","stop_url":"","location_type":"0","parent_station":""},
{"stop_id":"10150","stop_code":"10150","stop_name":"Meridian St & 21st St","stop_desc":"","stop_lat":"  39.795121","stop_lon":" -86.157286","zone_id":"","stop_url":"","location_type":"0","parent_station":""},
{"stop_id":"10151","stop_code":"10151","stop_name":"Meridian St & 22nd St","stop_desc":"","stop_lat":"  39.797870","stop_lon":" -86.157060","zone_id":"","stop_url":"","location_type":"0","parent_station":""},
{"stop_id":"10154","stop_code":"10154","stop_name":"Meridian St & 25th St","stop_desc":"","stop_lat":"  39.802582","stop_lon":" -86.156620","zone_id":"","stop_url":"","location_type":"0","parent_station":""},
{"stop_id":"10155","stop_code":"10155","stop_name":"Meridian St & Fall Creek Pkwy N Dr","stop_desc":"","stop_lat":"  39.804438","stop_lon":" -86.156559","zone_id":"","stop_url":"","location_type":"0","parent_station":""},
{"stop_id":"10156","stop_code":"10156","stop_name":"Meridian St & 28th St","stop_desc":"","stop_lat":"  39.806373","stop_lon":" -86.156644","zone_id":"","stop_url":"","location_type":"0","parent_station":""},
{"stop_id":"10157","stop_code":"10157","stop_name":"Meridian St & 29th St","stop_desc":"","stop_lat":"  39.808166","stop_lon":" -86.156610","zone_id":"","stop_url":"","location_type":"0","parent_station":""},
{"stop_id":"10158","stop_code":"10158","stop_name":"Meridian St & 30th St","stop_desc":"","stop_lat":"  39.810016","stop_lon":" -86.156616","zone_id":"","stop_url":"","location_type":"0","parent_station":""},
{"stop_id":"10159","stop_code":"10159","stop_name":"Meridian St & 30th St","stop_desc":"","stop_lat":"  39.812273","stop_lon":" -86.156643","zone_id":"","stop_url":"","location_type":"0","parent_station":""},
{"stop_id":"10160","stop_code":"10160","stop_name":"Meridian St & 32nd St","stop_desc":"","stop_lat":"  39.814214","stop_lon":" -86.156671","zone_id":"","stop_url":"","location_type":"0","parent_station":""},
{"stop_id":"10161","stop_code":"10161","stop_name":"Meridian St & 33rd St","stop_desc":"","stop_lat":"  39.815584","stop_lon":" -86.156684","zone_id":"","stop_url":"","location_type":"0","parent_station":""},
{"stop_id":"10162","stop_code":"10162","stop_name":"Meridian St & 34th St","stop_desc":"","stop_lat":"  39.817722","stop_lon":" -86.156717","zone_id":"","stop_url":"","location_type":"0","parent_station":""},
{"stop_id":"10163","stop_code":"10163","stop_name":"Meridian St & 35th St","stop_desc":"","stop_lat":"  39.819550","stop_lon":" -86.156726","zone_id":"","stop_url":"","location_type":"0","parent_station":""},
{"stop_id":"10164","stop_code":"10164","stop_name":"Meridian St & 36th St","stop_desc":"","stop_lat":"  39.821024","stop_lon":" -86.156733","zone_id":"","stop_url":"","location_type":"0","parent_station":""},
{"stop_id":"10165","stop_code":"10165","stop_name":"Meridian St & 37th St","stop_desc":"","stop_lat":"  39.822095","stop_lon":" -86.156737","zone_id":"","stop_url":"","location_type":"0","parent_station":""},
{"stop_id":"10166","stop_code":"10166","stop_name":"Meridian St & 37th St","stop_desc":"","stop_lat":"  39.823561","stop_lon":" -86.156780","zone_id":"","stop_url":"","location_type":"0","parent_station":""},
{"stop_id":"10167","stop_code":"10167","stop_name":"38th St & Orchard Ave","stop_desc":"","stop_lat":"  39.825349","stop_lon":" -86.128434","zone_id":"","stop_url":"","location_type":"0","parent_station":""},
{"stop_id":"10169","stop_code":"10169","stop_name":"38th St & Caroline Ave","stop_desc":"","stop_lat":"  39.825353","stop_lon":" -86.125960","zone_id":"","stop_url":"","location_type":"0","parent_station":""},
{"stop_id":"10171","stop_code":"10171","stop_name":"38th St & Hillside  Ave","stop_desc":"","stop_lat":"  39.825314","stop_lon":" -86.123303","zone_id":"","stop_url":"","location_type":"0","parent_station":""},
{"stop_id":"10172","stop_code":"10172","stop_name":"38th St & Keystone Ave","stop_desc":"","stop_lat":"  39.825238","stop_lon":" -86.121067","zone_id":"","stop_url":"","location_type":"0","parent_station":""},
{"stop_id":"10173","stop_code":"10173","stop_name":"38th St & Temple Ave","stop_desc":"","stop_lat":"  39.825275","stop_lon":" -86.118557","zone_id":"","stop_url":"","location_type":"0","parent_station":""},
{"stop_id":"10174","stop_code":"10174","stop_name":"38th St & Rural St","stop_desc":"","stop_lat":"  39.825271","stop_lon":" -86.116937","zone_id":"","stop_url":"","location_type":"0","parent_station":""},
{"stop_id":"10175","stop_code":"10175","stop_name":"38th St & Oxford St","stop_desc":"","stop_lat":"  39.825274","stop_lon":" -86.115314","zone_id":"","stop_url":"","location_type":"0","parent_station":""},
{"stop_id":"10176","stop_code":"10176","stop_name":"38th St & Parker Ave","stop_desc":"","stop_lat":"  39.825284","stop_lon":" -86.113598","zone_id":"","stop_url":"","location_type":"0","parent_station":""},
{"stop_id":"10178","stop_code":"10178","stop_name":"38th St & Lasalle St","stop_desc":"","stop_lat":"  39.825278","stop_lon":" -86.110083","zone_id":"","stop_url":"","location_type":"0","parent_station":""},
{"stop_id":"10179","stop_code":"10179","stop_name":"38th St & Adams St","stop_desc":"","stop_lat":"  39.825281","stop_lon":" -86.108485","zone_id":"","stop_url":"","location_type":"0","parent_station":""},
{"stop_id":"10181","stop_code":"10181","stop_name":"38th St & Gale St","stop_desc":"","stop_lat":"  39.825280","stop_lon":" -86.105879","zone_id":"","stop_url":"","location_type":"0","parent_station":""},
{"stop_id":"10182","stop_code":"10182","stop_name":"38th St & Station St","stop_desc":"","stop_lat":"  39.825272","stop_lon":" -86.104497","zone_id":"","stop_url":"","location_type":"0","parent_station":""},
{"stop_id":"10183","stop_code":"10183","stop_name":"38th St & Sherman Dr","stop_desc":"","stop_lat":"  39.825282","stop_lon":" -86.102397","zone_id":"","stop_url":"","location_type":"0","parent_station":""},
{"stop_id":"10184","stop_code":"10184","stop_name":"38th St & Chester Ave","stop_desc":"","stop_lat":"  39.825309","stop_lon":" -86.100360","zone_id":"","stop_url":"","location_type":"0","parent_station":""},
{"stop_id":"10187","stop_code":"10187","stop_name":"38th St & Forest Manor Ave","stop_desc":"","stop_lat":"  39.825348","stop_lon":" -86.098132","zone_id":"","stop_url":"","location_type":"0","parent_station":""},
{"stop_id":"10188","stop_code":"10188","stop_name":"38th St & Gladstone Ave","stop_desc":"","stop_lat":"  39.825363","stop_lon":" -86.096117","zone_id":"","stop_url":"","location_type":"0","parent_station":""},
{"stop_id":"10189","stop_code":"10189","stop_name":"38th St & Linwood Ave","stop_desc":"","stop_lat":"  39.825385","stop_lon":" -86.093916","zone_id":"","stop_url":"","location_type":"0","parent_station":""},
{"stop_id":"10191","stop_code":"10191","stop_name":"38th St & Arthington Blvd","stop_desc":"","stop_lat":"  39.825421","stop_lon":" -86.090972","zone_id":"","stop_url":"","location_type":"0","parent_station":""},
{"stop_id":"10193","stop_code":"10193","stop_name":"38th St & Dequincy St","stop_desc":"","stop_lat":"  39.825443","stop_lon":" -86.087978","zone_id":"","stop_url":"","location_type":"0","parent_station":""},
{"stop_id":"10195","stop_code":"10195","stop_name":"38th St & Bancroft St","stop_desc":"","stop_lat":"  39.825463","stop_lon":" -86.085269","zone_id":"","stop_url":"","location_type":"0","parent_station":""},
{"stop_id":"10196","stop_code":"10196","stop_name":"38th St & Emerson Ave","stop_desc":"","stop_lat":"  39.825439","stop_lon":" -86.082976","zone_id":"","stop_url":"","location_type":"0","parent_station":""},
{"stop_id":"10198","stop_code":"10198","stop_name":"38th St & Butler Ave","stop_desc":"","stop_lat":"  39.825415","stop_lon":" -86.080423","zone_id":"","stop_url":"","location_type":"0","parent_station":""},
{"stop_id":"10199","stop_code":"10199","stop_name":"38th St & Hawthorne Ln","stop_desc":"","stop_lat":"  39.825402","stop_lon":" -86.078689","zone_id":"","stop_url":"","location_type":"0","parent_station":""},
{"stop_id":"10200","stop_code":"10200","stop_name":"38th St & Irvington Ave","stop_desc":"","stop_lat":"  39.825402","stop_lon":" -86.076944","zone_id":"","stop_url":"","location_type":"0","parent_station":""},
{"stop_id":"10201","stop_code":"10201","stop_name":"38th St & Whittier Pl","stop_desc":"","stop_lat":"  39.825389","stop_lon":" -86.075278","zone_id":"","stop_url":"","location_type":"0","parent_station":""},
{"stop_id":"10202","stop_code":"10202","stop_name":"38th St & Layman Ave","stop_desc":"","stop_lat":"  39.825374","stop_lon":" -86.073195","zone_id":"","stop_url":"","location_type":"0","parent_station":""},
{"stop_id":"10205","stop_code":"10205","stop_name":"38th St & Graham Ave","stop_desc":"","stop_lat":"  39.825395","stop_lon":" -86.069652","zone_id":"","stop_url":"","location_type":"0","parent_station":""},
{"stop_id":"10206","stop_code":"10206","stop_name":"38th St & Bolton Ave","stop_desc":"","stop_lat":"  39.825392","stop_lon":" -86.066694","zone_id":"","stop_url":"","location_type":"0","parent_station":""},
{"stop_id":"10207","stop_code":"10207","stop_name":"38th St & Arlington Ave","stop_desc":"","stop_lat":"  39.825441","stop_lon":" -86.064241","zone_id":"","stop_url":"","location_type":"0","parent_station":""},
{"stop_id":"10208","stop_code":"10208","stop_name":"38th St & Sheridan Ave","stop_desc":"","stop_lat":"  39.825450","stop_lon":" -86.060104","zone_id":"","stop_url":"","location_type":"0","parent_station":""},
{"stop_id":"10209","stop_code":"10209","stop_name":"38th St & Elizabeth St","stop_desc":"","stop_lat":"  39.825647","stop_lon":" -86.052005","zone_id":"","stop_url":"","location_type":"0","parent_station":""},
{"stop_id":"10210","stop_code":"10210","stop_name":"38th St & Massachusetts Ave","stop_desc":"","stop_lat":"  39.825657","stop_lon":" -86.048947","zone_id":"","stop_url":"","location_type":"0","parent_station":""},
{"stop_id":"10211","stop_code":"10211","stop_name":"38th St & Shadeland Ave","stop_desc":"","stop_lat":"  39.825674","stop_lon":" -86.045411","zone_id":"","stop_url":"","location_type":"0","parent_station":""},
{"stop_id":"10212","stop_code":"10212","stop_name":"38th St & Whenner Dr","stop_desc":"","stop_lat":"  39.825666","stop_lon":" -86.043634","zone_id":"","stop_url":"","location_type":"0","parent_station":""},
{"stop_id":"10213","stop_code":"10213","stop_name":"38th St & Kercheval Dr","stop_desc":"","stop_lat":"  39.825666","stop_lon":" -86.040380","zone_id":"","stop_url":"","location_type":"0","parent_station":""},
{"stop_id":"10215","stop_code":"10215","stop_name":"38th St & Richardt St","stop_desc":"","stop_lat":"  39.825659","stop_lon":" -86.036581","zone_id":"","stop_url":"","location_type":"0","parent_station":""},
{"stop_id":"10216","stop_code":"10216","stop_name":"38th St - 7900 E","stop_desc":"","stop_lat":"  39.825651","stop_lon":" -86.034744","zone_id":"","stop_url":"","location_type":"0","parent_station":""},
{"stop_id":"10217","stop_code":"10217","stop_name":"Franklin Rd & 38th St","stop_desc":"","stop_lat":"  39.826318","stop_lon":" -86.026836","zone_id":"","stop_url":"","location_type":"0","parent_station":""},
{"stop_id":"10218","stop_code":"10218","stop_name":"Franklin Rd - Sports Center","stop_desc":"","stop_lat":"  39.828723","stop_lon":" -86.026899","zone_id":"","stop_url":"","location_type":"0","parent_station":""},
{"stop_id":"10219","stop_code":"10219","stop_name":"42nd St & Franklin Rd","stop_desc":"","stop_lat":"  39.832932","stop_lon":" -86.026636","zone_id":"","stop_url":"","location_type":"0","parent_station":""},
{"stop_id":"10220","stop_code":"10220","stop_name":"42nd St & Arborcrest Dr","stop_desc":"","stop_lat":"  39.833240","stop_lon":" -86.022934","zone_id":"","stop_url":"","location_type":"0","parent_station":""},
{"stop_id":"10222","stop_code":"10222","stop_name":"42nd St & Aspen Way","stop_desc":"","stop_lat":"  39.833278","stop_lon":" -86.019605","zone_id":"","stop_url":"","location_type":"0","parent_station":""},
{"stop_id":"10224","stop_code":"10224","stop_name":"42nd St & Private Dr-Missionary Christian Church","stop_desc":"","stop_lat":"  39.833294","stop_lon":" -86.016140","zone_id":"","stop_url":"","location_type":"0","parent_station":""},
{"stop_id":"10226","stop_code":"10226","stop_name":"42nd St & Biscayne Rd","stop_desc":"","stop_lat":"  39.833292","stop_lon":" -86.012149","zone_id":"","stop_url":"","location_type":"0","parent_station":""},
{"stop_id":"10227","stop_code":"10227","stop_name":"42nd St & Post Rd","stop_desc":"","stop_lat":"  39.833288","stop_lon":" -86.010582","zone_id":"","stop_url":"","location_type":"0","parent_station":""},
{"stop_id":"10228","stop_code":"10228","stop_name":"42nd St & Torino Ct","stop_desc":"","stop_lat":"  39.833326","stop_lon":" -86.008243","zone_id":"","stop_url":"","location_type":"0","parent_station":""},
{"stop_id":"10229","stop_code":"10229","stop_name":"42nd St & Mount Vernon Ct","stop_desc":"","stop_lat":"  39.833398","stop_lon":" -86.005857","zone_id":"","stop_url":"","location_type":"0","parent_station":""},
{"stop_id":"10230","stop_code":"10230","stop_name":"42nd St & Cordell St","stop_desc":"","stop_lat":"  39.833415","stop_lon":" -86.003009","zone_id":"","stop_url":"","location_type":"0","parent_station":""},
{"stop_id":"10231","stop_code":"10231","stop_name":"42nd St & Baker Dr","stop_desc":"","stop_lat":"  39.833479","stop_lon":" -85.999908","zone_id":"","stop_url":"","location_type":"0","parent_station":""},
{"stop_id":"10232","stop_code":"10232","stop_name":"42nd St & Burrwood Dr","stop_desc":"","stop_lat":"  39.833516","stop_lon":" -85.997554","zone_id":"","stop_url":"","location_type":"0","parent_station":""},
{"stop_id":"10233","stop_code":"10233","stop_name":"42nd St & Mitthoefer Rd","stop_desc":"","stop_lat":"  39.833602","stop_lon":" -85.991430","zone_id":"","stop_url":"","location_type":"0","parent_station":""},
{"stop_id":"10234","stop_code":"10234","stop_name":"Mitthoefer Rd & Ellis Dr","stop_desc":"","stop_lat":"  39.832468","stop_lon":" -85.991218","zone_id":"","stop_url":"","location_type":"0","parent_station":""},
{"stop_id":"10235","stop_code":"10235","stop_name":"Mitthoefer Rd & Montery Rd","stop_desc":"","stop_lat":"  39.830898","stop_lon":" -85.991193","zone_id":"","stop_url":"","location_type":"0","parent_station":""},
{"stop_id":"10236","stop_code":"10236","stop_name":"Mitthoefer Rd & Catalina Dr","stop_desc":"","stop_lat":"  39.828540","stop_lon":" -85.991171","zone_id":"","stop_url":"","location_type":"0","parent_station":""},
{"stop_id":"10237","stop_code":"10237","stop_name":"Mitthoefer Rd & 38th St","stop_desc":"","stop_lat":"  39.826945","stop_lon":" -85.991185","zone_id":"","stop_url":"","location_type":"0","parent_station":""},
{"stop_id":"10238","stop_code":"10238","stop_name":"Mitthoefer Rd & 38th St","stop_desc":"","stop_lat":"  39.825973","stop_lon":" -85.991145","zone_id":"","stop_url":"","location_type":"0","parent_station":""},
{"stop_id":"10239","stop_code":"10239","stop_name":"Mitthoefer Rd & John Marshall Dr N","stop_desc":"","stop_lat":"  39.822646","stop_lon":" -85.991072","zone_id":"","stop_url":"","location_type":"0","parent_station":""},
{"stop_id":"10240","stop_code":"10240","stop_name":"Mitthoefer Rd & Park Davis Dr","stop_desc":"","stop_lat":"  39.820563","stop_lon":" -85.991045","zone_id":"","stop_url":"","location_type":"0","parent_station":""},
{"stop_id":"10241","stop_code":"10241","stop_name":"Mitthoefer Rd & Conveyor Dr","stop_desc":"","stop_lat":"  39.815380","stop_lon":" -85.991017","zone_id":"","stop_url":"","location_type":"0","parent_station":""},
{"stop_id":"10242","stop_code":"10242","stop_name":"38th St & Franklin Rd","stop_desc":"","stop_lat":"  39.825767","stop_lon":" -86.025904","zone_id":"","stop_url":"","location_type":"0","parent_station":""},
{"stop_id":"10243","stop_code":"10243","stop_name":"38th St & Harvest Ave","stop_desc":"","stop_lat":"  39.825835","stop_lon":" -86.022586","zone_id":"","stop_url":"","location_type":"0","parent_station":""},
{"stop_id":"10244","stop_code":"10244","stop_name":"38th St & Alsace Dr","stop_desc":"","stop_lat":"  39.825849","stop_lon":" -86.020567","zone_id":"","stop_url":"","location_type":"0","parent_station":""},
{"stop_id":"10246","stop_code":"10246","stop_name":"38th St & Dubarry Rd","stop_desc":"","stop_lat":"  39.825889","stop_lon":" -86.016519","zone_id":"","stop_url":"","location_type":"0","parent_station":""},
{"stop_id":"10247","stop_code":"10247","stop_name":"38th St & Shopping Center Dr-Northeastwood","stop_desc":"","stop_lat":"  39.825906","stop_lon":" -86.012589","zone_id":"","stop_url":"","location_type":"0","parent_station":""},
{"stop_id":"10248","stop_code":"10248","stop_name":"38th St & Post Rd","stop_desc":"","stop_lat":"  39.825945","stop_lon":" -86.009527","zone_id":"","stop_url":"","location_type":"0","parent_station":""},
{"stop_id":"10250","stop_code":"10250","stop_name":"38th St & Wittfield St","stop_desc":"","stop_lat":"  39.826017","stop_lon":" -86.004863","zone_id":"","stop_url":"","location_type":"0","parent_station":""},
{"stop_id":"10251","stop_code":"10251","stop_name":"38th St & Parliament Ln","stop_desc":"","stop_lat":"  39.826063","stop_lon":" -86.001068","zone_id":"","stop_url":"","location_type":"0","parent_station":""},
{"stop_id":"10253","stop_code":"10253","stop_name":"38th St & Tudor Park Dr","stop_desc":"","stop_lat":"  39.826161","stop_lon":" -85.994813","zone_id":"","stop_url":"","location_type":"0","parent_station":""},
{"stop_id":"10254","stop_code":"10254","stop_name":"Mitthoefer Rd & 30th St","stop_desc":"","stop_lat":"  39.812643","stop_lon":" -85.991039","zone_id":"","stop_url":"","location_type":"0","parent_station":""},
{"stop_id":"10257","stop_code":"10257","stop_name":"Mitthoefer Rd & Ridgefield Dr","stop_desc":"","stop_lat":"  39.818089","stop_lon":" -85.991036","zone_id":"","stop_url":"","location_type":"0","parent_station":""},
{"stop_id":"10258","stop_code":"10258","stop_name":"38th St & Franklin Rd - Walmart Market","stop_desc":"","stop_lat":"  39.826008","stop_lon":" -86.025923","zone_id":"","stop_url":"","location_type":"0","parent_station":""},
{"stop_id":"10259","stop_code":"10259","stop_name":"Meridian St & 38th St","stop_desc":"","stop_lat":"  39.824632","stop_lon":" -86.156755","zone_id":"","stop_url":"","location_type":"0","parent_station":""},
{"stop_id":"10260","stop_code":"10260","stop_name":"38th St & Delaware St","stop_desc":"","stop_lat":"  39.824856","stop_lon":" -86.153026","zone_id":"","stop_url":"","location_type":"0","parent_station":""},
{"stop_id":"10261","stop_code":"10261","stop_name":"38th St & New Jersey St","stop_desc":"","stop_lat":"  39.824904","stop_lon":" -86.150010","zone_id":"","stop_url":"","location_type":"0","parent_station":""},
{"stop_id":"10262","stop_code":"10262","stop_name":"38th St & Park Ave","stop_desc":"","stop_lat":"  39.824933","stop_lon":" -86.147764","zone_id":"","stop_url":"","location_type":"0","parent_station":""},
{"stop_id":"10263","stop_code":"10263","stop_name":"38th St & College Ave","stop_desc":"","stop_lat":"  39.824986","stop_lon":" -86.144792","zone_id":"","stop_url":"","location_type":"0","parent_station":""},
{"stop_id":"10264","stop_code":"10264","stop_name":"38th St & Guilford Ave","stop_desc":"","stop_lat":"  39.825016","stop_lon":" -86.142802","zone_id":"","stop_url":"","location_type":"0","parent_station":""},
{"stop_id":"10265","stop_code":"10265","stop_name":"38th St & Watson Rd","stop_desc":"","stop_lat":"  39.825288","stop_lon":" -86.140090","zone_id":"","stop_url":"","location_type":"0","parent_station":""},
{"stop_id":"10266","stop_code":"10266","stop_name":"38th St & Coliseum Ave","stop_desc":"","stop_lat":"  39.825332","stop_lon":" -86.137410","zone_id":"","stop_url":"","location_type":"0","parent_station":""},
{"stop_id":"10267","stop_code":"10267","stop_name":"38th St & Woodland Ave","stop_desc":"","stop_lat":"  39.825364","stop_lon":" -86.135064","zone_id":"","stop_url":"","location_type":"0","parent_station":""},
{"stop_id":"10268","stop_code":"10268","stop_name":"38th St & Fall Creek Pkwy","stop_desc":"","stop_lat":"  39.825384","stop_lon":" -86.133476","zone_id":"","stop_url":"","location_type":"0","parent_station":""},
{"stop_id":"10269","stop_code":"10269","stop_name":"3500 N Mitthoefer","stop_desc":"","stop_lat":"  39.820420","stop_lon":" -85.992034","zone_id":"","stop_url":"","location_type":"0","parent_station":""},
{"stop_id":"10300","stop_code":"10300","stop_name":"38th St & Meridian St","stop_desc":"","stop_lat":"  39.824942","stop_lon":" -86.158004","zone_id":"","stop_url":"","location_type":"0","parent_station":""},
{"stop_id":"10301","stop_code":"10301","stop_name":"38th St & Rookwood Ave","stop_desc":"","stop_lat":"  39.824899","stop_lon":" -86.167367","zone_id":"","stop_url":"","location_type":"0","parent_station":""},
{"stop_id":"10302","stop_code":"10302","stop_name":"38th St & Clarendon Rd","stop_desc":"","stop_lat":"  39.824887","stop_lon":" -86.171561","zone_id":"","stop_url":"","location_type":"0","parent_station":""},
{"stop_id":"10303","stop_code":"10303","stop_name":"38th St & Michigan Rd","stop_desc":"","stop_lat":"  39.824749","stop_lon":" -86.181725","zone_id":"","stop_url":"","location_type":"0","parent_station":""},
{"stop_id":"10304","stop_code":"10304","stop_name":"38th St & Private Dr","stop_desc":"","stop_lat":"  39.824703","stop_lon":" -86.183918","zone_id":"","stop_url":"","location_type":"0","parent_station":""},
{"stop_id":"10305","stop_code":"10305","stop_name":"38th St & Knollton Rd","stop_desc":"","stop_lat":"  39.824598","stop_lon":" -86.198005","zone_id":"","stop_url":"","location_type":"0","parent_station":""},
{"stop_id":"10306","stop_code":"10306","stop_name":"Lafayette Rd & 38th St","stop_desc":"","stop_lat":"  39.825569","stop_lon":" -86.236340","zone_id":"","stop_url":"","location_type":"0","parent_station":""},
{"stop_id":"10307","stop_code":"10307","stop_name":"Lafayette Rd - 3950 N - Lafayette Sq","stop_desc":"","stop_lat":"  39.826916","stop_lon":" -86.237722","zone_id":"","stop_url":"","location_type":"0","parent_station":""},
{"stop_id":"10308","stop_code":"10308","stop_name":"Georgetown Rd - 4000 N","stop_desc":"","stop_lat":"  39.827163","stop_lon":" -86.240473","zone_id":"","stop_url":"","location_type":"0","parent_station":""},
{"stop_id":"10309","stop_code":"10309","stop_name":"Georgetown Rd & 38th St","stop_desc":"","stop_lat":"  39.825415","stop_lon":" -86.240277","zone_id":"","stop_url":"","location_type":"0","parent_station":""},
{"stop_id":"10312","stop_code":"10312","stop_name":"38th St & Georgetown Rd","stop_desc":"","stop_lat":"  39.824062","stop_lon":" -86.240853","zone_id":"","stop_url":"","location_type":"0","parent_station":""},
{"stop_id":"10313","stop_code":"10313","stop_name":"38th St & Private Dr","stop_desc":"","stop_lat":"  39.824035","stop_lon":" -86.244655","zone_id":"","stop_url":"","location_type":"0","parent_station":""},
{"stop_id":"10314","stop_code":"10314","stop_name":"38th St & Gemco Ln","stop_desc":"","stop_lat":"  39.824030","stop_lon":" -86.246774","zone_id":"","stop_url":"","location_type":"0","parent_station":""},
{"stop_id":"10315","stop_code":"10315","stop_name":"38th St & Private Dr","stop_desc":"","stop_lat":"  39.823977","stop_lon":" -86.250672","zone_id":"","stop_url":"","location_type":"0","parent_station":""},
{"stop_id":"10316","stop_code":"10316","stop_name":"38th St - 5400 W","stop_desc":"","stop_lat":"  39.823935","stop_lon":" -86.253562","zone_id":"","stop_url":"","location_type":"0","parent_station":""},
{"stop_id":"10317","stop_code":"10317","stop_name":"38th St & Moller Rd","stop_desc":"","stop_lat":"  39.823898","stop_lon":" -86.257158","zone_id":"","stop_url":"","location_type":"0","parent_station":""},
{"stop_id":"10319","stop_code":"10319","stop_name":"38th St & Kiel Ave","stop_desc":"","stop_lat":"  39.823787","stop_lon":" -86.262757","zone_id":"","stop_url":"","location_type":"0","parent_station":""},
{"stop_id":"10320","stop_code":"10320","stop_name":"38th St & Parkwood Ct","stop_desc":"","stop_lat":"  39.823759","stop_lon":" -86.264438","zone_id":"","stop_url":"","location_type":"0","parent_station":""},
{"stop_id":"10321","stop_code":"10321","stop_name":"38th St & Lawndale Ave","stop_desc":"","stop_lat":"  39.823702","stop_lon":" -86.266367","zone_id":"","stop_url":"","location_type":"0","parent_station":""},
{"stop_id":"10322","stop_code":"10322","stop_name":"38th St & Eagle Creek Pkwy","stop_desc":"","stop_lat":"  39.823429","stop_lon":" -86.282410","zone_id":"","stop_url":"","location_type":"0","parent_station":""},
{"stop_id":"10323","stop_code":"10323","stop_name":"Eagle Creek Pkwy & Private Dr","stop_desc":"","stop_lat":"  39.824254","stop_lon":" -86.283222","zone_id":"","stop_url":"","location_type":"0","parent_station":""},
{"stop_id":"10324","stop_code":"10324","stop_name":"Eagle Creek Pkwy & Parkdale Pl","stop_desc":"","stop_lat":"  39.826411","stop_lon":" -86.283295","zone_id":"","stop_url":"","location_type":"0","parent_station":""},
{"stop_id":"10325","stop_code":"10325","stop_name":"Eagle Creek Pkwy & Eagle Highlands Way","stop_desc":"","stop_lat":"  39.827783","stop_lon":" -86.283311","zone_id":"","stop_url":"","location_type":"0","parent_station":""},
{"stop_id":"10326","stop_code":"10326","stop_name":"Eagle Creek Pkwy & Shore Terrace","stop_desc":"","stop_lat":"  39.829260","stop_lon":" -86.283937","zone_id":"","stop_url":"","location_type":"0","parent_station":""},
{"stop_id":"10327","stop_code":"10327","stop_name":"Shore Terrace - 6900 W","stop_desc":"","stop_lat":"  39.829867","stop_lon":" -86.282785","zone_id":"","stop_url":"","location_type":"0","parent_station":""},
{"stop_id":"10328","stop_code":"10328","stop_name":"Eagle Highlands Way & Private Dr","stop_desc":"","stop_lat":"  39.828128","stop_lon":" -86.280519","zone_id":"","stop_url":"","location_type":"0","parent_station":""},
{"stop_id":"10329","stop_code":"10329","stop_name":"Eagle Creek Pkwy & Eagle Highlands Way","stop_desc":"","stop_lat":"  39.827667","stop_lon":" -86.283459","zone_id":"","stop_url":"","location_type":"0","parent_station":""},
{"stop_id":"10330","stop_code":"10330","stop_name":"Eagle Creek Pkwy & Private Dr","stop_desc":"","stop_lat":"  39.826366","stop_lon":" -86.283487","zone_id":"","stop_url":"","location_type":"0","parent_station":""},
{"stop_id":"10331","stop_code":"10331","stop_name":"38th St & Shore Dr","stop_desc":"","stop_lat":"  39.823247","stop_lon":" -86.281942","zone_id":"","stop_url":"","location_type":"0","parent_station":""},
{"stop_id":"10332","stop_code":"10332","stop_name":"38th St & High School Rd","stop_desc":"","stop_lat":"  39.823413","stop_lon":" -86.269198","zone_id":"","stop_url":"","location_type":"0","parent_station":""},
{"stop_id":"10333","stop_code":"10333","stop_name":"38th St & Lawndale Ave","stop_desc":"","stop_lat":"  39.823492","stop_lon":" -86.266130","zone_id":"","stop_url":"","location_type":"0","parent_station":""},
{"stop_id":"10334","stop_code":"10334","stop_name":"38th St & Kiel Ave","stop_desc":"","stop_lat":"  39.823604","stop_lon":" -86.261990","zone_id":"","stop_url":"","location_type":"0","parent_station":""},
{"stop_id":"10335","stop_code":"10335","stop_name":"38th St - 5600 W","stop_desc":"","stop_lat":"  39.823663","stop_lon":" -86.259114","zone_id":"","stop_url":"","location_type":"0","parent_station":""},
{"stop_id":"10336","stop_code":"10336","stop_name":"38th St & Moller Rd","stop_desc":"","stop_lat":"  39.823718","stop_lon":" -86.255244","zone_id":"","stop_url":"","location_type":"0","parent_station":""},
{"stop_id":"10337","stop_code":"10337","stop_name":"38th St & Kevin Way","stop_desc":"","stop_lat":"  39.823784","stop_lon":" -86.249894","zone_id":"","stop_url":"","location_type":"0","parent_station":""},
{"stop_id":"10338","stop_code":"10338","stop_name":"38th St & Gemco Ln","stop_desc":"","stop_lat":"  39.823829","stop_lon":" -86.246836","zone_id":"","stop_url":"","location_type":"0","parent_station":""},
{"stop_id":"10339","stop_code":"10339","stop_name":"38th St & Georgetown Rd","stop_desc":"","stop_lat":"  39.823873","stop_lon":" -86.239107","zone_id":"","stop_url":"","location_type":"0","parent_station":""},
{"stop_id":"10340","stop_code":"10340","stop_name":"Lafayette Rd & 37th St","stop_desc":"","stop_lat":"  39.821970","stop_lon":" -86.233039","zone_id":"","stop_url":"","location_type":"0","parent_station":""},
{"stop_id":"10341","stop_code":"10341","stop_name":"Lafayette Rd - 3574 N","stop_desc":"","stop_lat":"  39.820197","stop_lon":" -86.231319","zone_id":"","stop_url":"","location_type":"0","parent_station":""},
{"stop_id":"10342","stop_code":"10342","stop_name":"Lafayette Rd - 3500 N","stop_desc":"","stop_lat":"  39.818451","stop_lon":" -86.229599","zone_id":"","stop_url":"","location_type":"0","parent_station":""},
{"stop_id":"10343","stop_code":"10343","stop_name":"Commercial Dr - 3550 N","stop_desc":"","stop_lat":"  39.818410","stop_lon":" -86.228339","zone_id":"","stop_url":"","location_type":"0","parent_station":""},
{"stop_id":"10344","stop_code":"10344","stop_name":"Commercial Dr - 3650 N","stop_desc":"","stop_lat":"  39.819461","stop_lon":" -86.228426","zone_id":"","stop_url":"","location_type":"0","parent_station":""},
{"stop_id":"10345","stop_code":"10345","stop_name":"Commercial Dr - 3695 N","stop_desc":"","stop_lat":"  39.821707","stop_lon":" -86.228458","zone_id":"","stop_url":"","location_type":"0","parent_station":""},
{"stop_id":"10346","stop_code":"10346","stop_name":"Commercial Dr - 3720 N","stop_desc":"","stop_lat":"  39.822807","stop_lon":" -86.229204","zone_id":"","stop_url":"","location_type":"0","parent_station":""},
{"stop_id":"10347","stop_code":"10347","stop_name":"Commercial Dr & Shopping Center Dr","stop_desc":"","stop_lat":"  39.822285","stop_lon":" -86.228655","zone_id":"","stop_url":"","location_type":"0","parent_station":""},
{"stop_id":"10348","stop_code":"10348","stop_name":"Commercial Dr & Lafayette Rd","stop_desc":"","stop_lat":"  39.818374","stop_lon":" -86.228453","zone_id":"","stop_url":"","location_type":"0","parent_station":""},
{"stop_id":"10349","stop_code":"10349","stop_name":"Lafayette Rd - 3600 N","stop_desc":"","stop_lat":"  39.820206","stop_lon":" -86.231145","zone_id":"","stop_url":"","location_type":"0","parent_station":""},
{"stop_id":"10350","stop_code":"10350","stop_name":"Lafayette Rd 3750 N","stop_desc":"","stop_lat":"  39.822277","stop_lon":" -86.233152","zone_id":"","stop_url":"","location_type":"0","parent_station":""},
{"stop_id":"10351","stop_code":"10351","stop_name":"38th St & Guion Rd","stop_desc":"","stop_lat":"  39.823507","stop_lon":" -86.220587","zone_id":"","stop_url":"","location_type":"0","parent_station":""},
{"stop_id":"10352","stop_code":"10352","stop_name":"38th St & Cold Spring Rd","stop_desc":"","stop_lat":"  39.824365","stop_lon":" -86.197939","zone_id":"","stop_url":"","location_type":"0","parent_station":""},
{"stop_id":"10353","stop_code":"10353","stop_name":"38th St & Private Dr","stop_desc":"","stop_lat":"  39.824492","stop_lon":" -86.184457","zone_id":"","stop_url":"","location_type":"0","parent_station":""},
{"stop_id":"10355","stop_code":"10355","stop_name":"38th St & Clarendon Rd","stop_desc":"","stop_lat":"  39.824684","stop_lon":" -86.171428","zone_id":"","stop_url":"","location_type":"0","parent_station":""},
{"stop_id":"10356","stop_code":"10356","stop_name":"38th St & Byram Ave","stop_desc":"","stop_lat":"  39.824703","stop_lon":" -86.169619","zone_id":"","stop_url":"","location_type":"0","parent_station":""},
{"stop_id":"10357","stop_code":"10357","stop_name":"38th St & Rookwood Ave","stop_desc":"","stop_lat":"  39.824711","stop_lon":" -86.167790","zone_id":"","stop_url":"","location_type":"0","parent_station":""},
{"stop_id":"10358","stop_code":"10358","stop_name":"38th St & Cornelius Ave","stop_desc":"","stop_lat":"  39.824716","stop_lon":" -86.165981","zone_id":"","stop_url":"","location_type":"0","parent_station":""},
{"stop_id":"10359","stop_code":"10359","stop_name":"38th St & Boulevard Pl","stop_desc":"","stop_lat":"  39.824726","stop_lon":" -86.164286","zone_id":"","stop_url":"","location_type":"0","parent_station":""},
{"stop_id":"10360","stop_code":"10360","stop_name":"38th St & Kenwood Ave","stop_desc":"","stop_lat":"  39.824941","stop_lon":" -86.159631","zone_id":"","stop_url":"","location_type":"0","parent_station":""},
{"stop_id":"10361","stop_code":"10361","stop_name":"38th St & Boulevard Pl","stop_desc":"","stop_lat":"  39.824926","stop_lon":" -86.163127","zone_id":"","stop_url":"","location_type":"0","parent_station":""},
{"stop_id":"10362","stop_code":"10362","stop_name":"38th St & High School Rd","stop_desc":"","stop_lat":"  39.823639","stop_lon":" -86.268513","zone_id":"","stop_url":"","location_type":"0","parent_station":""},
{"stop_id":"10363","stop_code":"10363","stop_name":"38th St - 4945 W","stop_desc":"","stop_lat":"  39.823812","stop_lon":" -86.243037","zone_id":"","stop_url":"","location_type":"0","parent_station":""},
{"stop_id":"10364","stop_code":"10364","stop_name":"38th St & Capitol Ave","stop_desc":"","stop_lat":"  39.824742","stop_lon":" -86.160616","zone_id":"","stop_url":"","location_type":"0","parent_station":""},
{"stop_id":"10365","stop_code":"10365","stop_name":"38th St & Illinois St","stop_desc":"","stop_lat":"  39.824768","stop_lon":" -86.158252","zone_id":"","stop_url":"","location_type":"0","parent_station":""},
{"stop_id":"10366","stop_code":"10366","stop_name":"38th St & Cornelius Ave","stop_desc":"","stop_lat":"  39.824912","stop_lon":" -86.165591","zone_id":"","stop_url":"","location_type":"0","parent_station":""},
{"stop_id":"10367","stop_code":"10367","stop_name":"38th St & Byram Ave","stop_desc":"","stop_lat":"  39.824897","stop_lon":" -86.169204","zone_id":"","stop_url":"","location_type":"0","parent_station":""},
{"stop_id":"10400","stop_code":"10400","stop_name":"Delaware St & Market St","stop_desc":"","stop_lat":"  39.768718","stop_lon":" -86.154391","zone_id":"","stop_url":"","location_type":"0","parent_station":""},
{"stop_id":"10401","stop_code":"10401","stop_name":"Delaware St & New York St","stop_desc":"","stop_lat":"  39.771030","stop_lon":" -86.154248","zone_id":"","stop_url":"","location_type":"0","parent_station":""},
{"stop_id":"10402","stop_code":"10402","stop_name":"Delaware St & Vermont St","stop_desc":"","stop_lat":"  39.772370","stop_lon":" -86.154186","zone_id":"","stop_url":"","location_type":"0","parent_station":""},
{"stop_id":"10403","stop_code":"10403","stop_name":"Delaware St & Michigan St","stop_desc":"","stop_lat":"  39.773735","stop_lon":" -86.154132","zone_id":"","stop_url":"","location_type":"0","parent_station":""},
{"stop_id":"10405","stop_code":"10405","stop_name":"Alabama St & North St","stop_desc":"","stop_lat":"  39.775859","stop_lon":" -86.152279","zone_id":"","stop_url":"","location_type":"0","parent_station":""},
{"stop_id":"10407","stop_code":"10407","stop_name":"Alabama St & Saint Clair Ct","stop_desc":"","stop_lat":"  39.777756","stop_lon":" -86.152175","zone_id":"","stop_url":"","location_type":"0","parent_station":""},
{"stop_id":"10408","stop_code":"10408","stop_name":"Alabama St & 09th St","stop_desc":"","stop_lat":"  39.778945","stop_lon":" -86.152162","zone_id":"","stop_url":"","location_type":"0","parent_station":""},
{"stop_id":"10410","stop_code":"10410","stop_name":"Alabama St & Puryear St","stop_desc":"","stop_lat":"  39.780834","stop_lon":" -86.152082","zone_id":"","stop_url":"","location_type":"0","parent_station":""},
{"stop_id":"10411","stop_code":"10411","stop_name":"Alabama St & 12th St","stop_desc":"","stop_lat":"  39.782816","stop_lon":" -86.152118","zone_id":"","stop_url":"","location_type":"0","parent_station":""},
{"stop_id":"10412","stop_code":"10412","stop_name":"Alabama St & 13th St","stop_desc":"","stop_lat":"  39.784364","stop_lon":" -86.152136","zone_id":"","stop_url":"","location_type":"0","parent_station":""},
{"stop_id":"10413","stop_code":"10413","stop_name":"Alabama St & 15th St","stop_desc":"","stop_lat":"  39.787379","stop_lon":" -86.152128","zone_id":"","stop_url":"","location_type":"0","parent_station":""},
{"stop_id":"10414","stop_code":"10414","stop_name":"Alabama St & 16th St","stop_desc":"","stop_lat":"  39.788671","stop_lon":" -86.152194","zone_id":"","stop_url":"","location_type":"0","parent_station":""},
{"stop_id":"10415","stop_code":"10415","stop_name":"Alabama St & 17th St","stop_desc":"","stop_lat":"  39.790681","stop_lon":" -86.152276","zone_id":"","stop_url":"","location_type":"0","parent_station":""},
{"stop_id":"10416","stop_code":"10416","stop_name":"Alabama St & 19th St","stop_desc":"","stop_lat":"  39.792984","stop_lon":" -86.152275","zone_id":"","stop_url":"","location_type":"0","parent_station":""},
{"stop_id":"10417","stop_code":"10417","stop_name":"Alabama St & 21st St","stop_desc":"","stop_lat":"  39.795715","stop_lon":" -86.152301","zone_id":"","stop_url":"","location_type":"0","parent_station":""},
{"stop_id":"10418","stop_code":"10418","stop_name":"Alabama St & 22nd St","stop_desc":"","stop_lat":"  39.797244","stop_lon":" -86.152319","zone_id":"","stop_url":"","location_type":"0","parent_station":""},
{"stop_id":"10419","stop_code":"10419","stop_name":"22nd St & Central Ave","stop_desc":"","stop_lat":"  39.797395","stop_lon":" -86.149711","zone_id":"","stop_url":"","location_type":"0","parent_station":""},
{"stop_id":"10420","stop_code":"10420","stop_name":"22nd St & Park Ave","stop_desc":"","stop_lat":"  39.797555","stop_lon":" -86.148189","zone_id":"","stop_url":"","location_type":"0","parent_station":""},
{"stop_id":"10421","stop_code":"10421","stop_name":"22nd St & Broadway St","stop_desc":"","stop_lat":"  39.797614","stop_lon":" -86.146510","zone_id":"","stop_url":"","location_type":"0","parent_station":""},
{"stop_id":"10422","stop_code":"10422","stop_name":"College Ave & 22nd St","stop_desc":"","stop_lat":"  39.797979","stop_lon":" -86.144683","zone_id":"","stop_url":"","location_type":"0","parent_station":""},
{"stop_id":"10423","stop_code":"10423","stop_name":"College Ave & 23rd St","stop_desc":"","stop_lat":"  39.799302","stop_lon":" -86.144706","zone_id":"","stop_url":"","location_type":"0","parent_station":""},
{"stop_id":"10424","stop_code":"10424","stop_name":"College Ave & 24th St","stop_desc":"","stop_lat":"  39.801155","stop_lon":" -86.144723","zone_id":"","stop_url":"","location_type":"0","parent_station":""},
{"stop_id":"10425","stop_code":"10425","stop_name":"College Ave & 25th St","stop_desc":"","stop_lat":"  39.802917","stop_lon":" -86.144713","zone_id":"","stop_url":"","location_type":"0","parent_station":""},
{"stop_id":"10426","stop_code":"10426","stop_name":"College Ave & 26th St","stop_desc":"","stop_lat":"  39.804175","stop_lon":" -86.144719","zone_id":"","stop_url":"","location_type":"0","parent_station":""},
{"stop_id":"10427","stop_code":"10427","stop_name":"College Ave & 27th St","stop_desc":"","stop_lat":"  39.805333","stop_lon":" -86.144730","zone_id":"","stop_url":"","location_type":"0","parent_station":""},
{"stop_id":"10428","stop_code":"10428","stop_name":"College Ave & 28th St","stop_desc":"","stop_lat":"  39.806774","stop_lon":" -86.144729","zone_id":"","stop_url":"","location_type":"0","parent_station":""},
{"stop_id":"10429","stop_code":"10429","stop_name":"College Ave & 30th St","stop_desc":"","stop_lat":"  39.810206","stop_lon":" -86.144860","zone_id":"","stop_url":"","location_type":"0","parent_station":""},
{"stop_id":"10430","stop_code":"10430","stop_name":"30th St & Fall Creek Pkwy N Dr","stop_desc":"","stop_lat":"  39.810341","stop_lon":" -86.144064","zone_id":"","stop_url":"","location_type":"0","parent_station":""},
{"stop_id":"10431","stop_code":"10431","stop_name":"Sutherland Ave & 30th St","stop_desc":"","stop_lat":"  39.810988","stop_lon":" -86.141558","zone_id":"","stop_url":"","location_type":"0","parent_station":""},
{"stop_id":"10432","stop_code":"10432","stop_name":"Sutherland Ave & 32nd St","stop_desc":"","stop_lat":"  39.813087","stop_lon":" -86.141128","zone_id":"","stop_url":"","location_type":"0","parent_station":""},
{"stop_id":"10433","stop_code":"10433","stop_name":"Sutherland Ave & Private","stop_desc":"","stop_lat":"  39.814258","stop_lon":" -86.140841","zone_id":"","stop_url":"","location_type":"0","parent_station":""},
{"stop_id":"10434","stop_code":"10434","stop_name":"Sutherland Ave & Guilford Ave","stop_desc":"","stop_lat":"  39.815425","stop_lon":" -86.139279","zone_id":"","stop_url":"","location_type":"0","parent_station":""},
{"stop_id":"10435","stop_code":"10435","stop_name":"Sutherland Ave & Winthrop Ave","stop_desc":"","stop_lat":"  39.815865","stop_lon":" -86.137705","zone_id":"","stop_url":"","location_type":"0","parent_station":""},
{"stop_id":"10436","stop_code":"10436","stop_name":"Sutherland Ave & 34th St","stop_desc":"","stop_lat":"  39.817896","stop_lon":" -86.134561","zone_id":"","stop_url":"","location_type":"0","parent_station":""},
{"stop_id":"10437","stop_code":"10437","stop_name":"34th St & Hovey St","stop_desc":"","stop_lat":"  39.817996","stop_lon":" -86.132767","zone_id":"","stop_url":"","location_type":"0","parent_station":""},
{"stop_id":"10438","stop_code":"10438","stop_name":"34th St & Ralston Ave","stop_desc":"","stop_lat":"  39.818005","stop_lon":" -86.131276","zone_id":"","stop_url":"","location_type":"0","parent_station":""},
{"stop_id":"10439","stop_code":"10439","stop_name":"34th St & Schofield Ave","stop_desc":"","stop_lat":"  39.818036","stop_lon":" -86.129798","zone_id":"","stop_url":"","location_type":"0","parent_station":""},
{"stop_id":"10440","stop_code":"10440","stop_name":"34th St & Orchard Ave","stop_desc":"","stop_lat":"  39.818029","stop_lon":" -86.127915","zone_id":"","stop_url":"","location_type":"0","parent_station":""},
{"stop_id":"10441","stop_code":"10441","stop_name":"34th St & Caroline Ave","stop_desc":"","stop_lat":"  39.818040","stop_lon":" -86.125975","zone_id":"","stop_url":"","location_type":"0","parent_station":""},
{"stop_id":"10442","stop_code":"10442","stop_name":"34th St & Baltimore Ave","stop_desc":"","stop_lat":"  39.818055","stop_lon":" -86.124227","zone_id":"","stop_url":"","location_type":"0","parent_station":""},
{"stop_id":"10444","stop_code":"10444","stop_name":"34th St & Keystone Ave","stop_desc":"","stop_lat":"  39.818062","stop_lon":" -86.121169","zone_id":"","stop_url":"","location_type":"0","parent_station":""},
{"stop_id":"10445","stop_code":"10445","stop_name":"34th St & Tacoma Ave","stop_desc":"","stop_lat":"  39.818076","stop_lon":" -86.120254","zone_id":"","stop_url":"","location_type":"0","parent_station":""},
{"stop_id":"10446","stop_code":"10446","stop_name":"34th St & Temple Ave","stop_desc":"","stop_lat":"  39.818081","stop_lon":" -86.118343","zone_id":"","stop_url":"","location_type":"0","parent_station":""},
{"stop_id":"10447","stop_code":"10447","stop_name":"34th St & Rural St","stop_desc":"","stop_lat":"  39.818076","stop_lon":" -86.116890","zone_id":"","stop_url":"","location_type":"0","parent_station":""},
{"stop_id":"10448","stop_code":"10448","stop_name":"34th St & Oxford St","stop_desc":"","stop_lat":"  39.818090","stop_lon":" -86.115185","zone_id":"","stop_url":"","location_type":"0","parent_station":""},
{"stop_id":"10450","stop_code":"10450","stop_name":"34th St & Dearborn St","stop_desc":"","stop_lat":"  39.818088","stop_lon":" -86.112358","zone_id":"","stop_url":"","location_type":"0","parent_station":""},
{"stop_id":"10451","stop_code":"10451","stop_name":"34th St & Houston St","stop_desc":"","stop_lat":"  39.818103","stop_lon":" -86.109731","zone_id":"","stop_url":"","location_type":"0","parent_station":""},
{"stop_id":"10452","stop_code":"10452","stop_name":"34th St & Adams St","stop_desc":"","stop_lat":"  39.818116","stop_lon":" -86.108546","zone_id":"","stop_url":"","location_type":"0","parent_station":""},
{"stop_id":"10453","stop_code":"10453","stop_name":"34th St & Olney St","stop_desc":"","stop_lat":"  39.818138","stop_lon":" -86.107033","zone_id":"","stop_url":"","location_type":"0","parent_station":""},
{"stop_id":"10455","stop_code":"10455","stop_name":"34th St & Station St","stop_desc":"","stop_lat":"  39.818139","stop_lon":" -86.104509","zone_id":"","stop_url":"","location_type":"0","parent_station":""},
{"stop_id":"10456","stop_code":"10456","stop_name":"34th St & Sherman Dr","stop_desc":"","stop_lat":"  39.818137","stop_lon":" -86.102871","zone_id":"","stop_url":"","location_type":"0","parent_station":""},
{"stop_id":"10457","stop_code":"10457","stop_name":"34th St & Chester Ave","stop_desc":"","stop_lat":"  39.818161","stop_lon":" -86.100290","zone_id":"","stop_url":"","location_type":"0","parent_station":""},
{"stop_id":"10458","stop_code":"10458","stop_name":"34th St & Forest Manor Ave","stop_desc":"","stop_lat":"  39.818174","stop_lon":" -86.098069","zone_id":"","stop_url":"","location_type":"0","parent_station":""},
{"stop_id":"10460","stop_code":"10460","stop_name":"34th St & Colorado Ave","stop_desc":"","stop_lat":"  39.818204","stop_lon":" -86.095349","zone_id":"","stop_url":"","location_type":"0","parent_station":""},
{"stop_id":"10461","stop_code":"10461","stop_name":"34th St & Euclid Ave","stop_desc":"","stop_lat":"  39.818233","stop_lon":" -86.092697","zone_id":"","stop_url":"","location_type":"0","parent_station":""},
{"stop_id":"10463","stop_code":"10463","stop_name":"34th St & Arthington Blvd","stop_desc":"","stop_lat":"  39.818255","stop_lon":" -86.090387","zone_id":"","stop_url":"","location_type":"0","parent_station":""},
{"stop_id":"10465","stop_code":"10465","stop_name":"34th St & Dequincy St","stop_desc":"","stop_lat":"  39.818283","stop_lon":" -86.087892","zone_id":"","stop_url":"","location_type":"0","parent_station":""},
{"stop_id":"10466","stop_code":"10466","stop_name":"34th St & Bancroft St","stop_desc":"","stop_lat":"  39.818312","stop_lon":" -86.085129","zone_id":"","stop_url":"","location_type":"0","parent_station":""},
{"stop_id":"10469","stop_code":"10469","stop_name":"34th St & Emerson Ave","stop_desc":"","stop_lat":"  39.818344","stop_lon":" -86.083186","zone_id":"","stop_url":"","location_type":"0","parent_station":""},
{"stop_id":"10470","stop_code":"10470","stop_name":"34th St & Butler Ave","stop_desc":"","stop_lat":"  39.818332","stop_lon":" -86.080348","zone_id":"","stop_url":"","location_type":"0","parent_station":""},
{"stop_id":"10471","stop_code":"10471","stop_name":"34th St & Downey Ave","stop_desc":"","stop_lat":"  39.818316","stop_lon":" -86.077867","zone_id":"","stop_url":"","location_type":"0","parent_station":""},
{"stop_id":"10472","stop_code":"10472","stop_name":"34th St & Layman Ave","stop_desc":"","stop_lat":"  39.818330","stop_lon":" -86.073310","zone_id":"","stop_url":"","location_type":"0","parent_station":""},
{"stop_id":"10473","stop_code":"10473","stop_name":"34th St - 5851 E","stop_desc":"","stop_lat":"  39.818310","stop_lon":" -86.067980","zone_id":"","stop_url":"","location_type":"0","parent_station":""},
{"stop_id":"10474","stop_code":"10474","stop_name":"34th St & Arlington Ave","stop_desc":"","stop_lat":"  39.818293","stop_lon":" -86.064214","zone_id":"","stop_url":"","location_type":"0","parent_station":""},
{"stop_id":"10475","stop_code":"10475","stop_name":"34th St - 6600 E","stop_desc":"","stop_lat":"  39.818342","stop_lon":" -86.058625","zone_id":"","stop_url":"","location_type":"0","parent_station":""},
{"stop_id":"10476","stop_code":"10476","stop_name":"34th St - 6700 E","stop_desc":"","stop_lat":"  39.818357","stop_lon":" -86.054944","zone_id":"","stop_url":"","location_type":"0","parent_station":""},
{"stop_id":"10477","stop_code":"10477","stop_name":"34th St & Elizabeth St","stop_desc":"","stop_lat":"  39.818375","stop_lon":" -86.052783","zone_id":"","stop_url":"","location_type":"0","parent_station":""},
{"stop_id":"10478","stop_code":"10478","stop_name":"34th St & Edmondson Ave","stop_desc":"","stop_lat":"  39.818381","stop_lon":" -86.051028","zone_id":"","stop_url":"","location_type":"0","parent_station":""},
{"stop_id":"10479","stop_code":"10479","stop_name":"34th St & Shadeland Ave","stop_desc":"","stop_lat":"  39.818380","stop_lon":" -86.046421","zone_id":"","stop_url":"","location_type":"0","parent_station":""},
{"stop_id":"10480","stop_code":"10480","stop_name":"Shadeland Ave & 32nd St","stop_desc":"","stop_lat":"  39.816040","stop_lon":" -86.045921","zone_id":"","stop_url":"","location_type":"0","parent_station":""},
{"stop_id":"10481","stop_code":"10481","stop_name":"Shadeland Ave - 3100 N","stop_desc":"","stop_lat":"  39.813731","stop_lon":" -86.045894","zone_id":"","stop_url":"","location_type":"0","parent_station":""},
{"stop_id":"10482","stop_code":"10482","stop_name":"30th St & Shadeland Ave","stop_desc":"","stop_lat":"  39.811004","stop_lon":" -86.044505","zone_id":"","stop_url":"","location_type":"0","parent_station":""},
{"stop_id":"10483","stop_code":"10483","stop_name":"30th St & Elmhurst Dr","stop_desc":"","stop_lat":"  39.811029","stop_lon":" -86.040091","zone_id":"","stop_url":"","location_type":"0","parent_station":""},
{"stop_id":"10484","stop_code":"10484","stop_name":"30th St & Richardt Av","stop_desc":"","stop_lat":"  39.811034","stop_lon":" -86.035011","zone_id":"","stop_url":"","location_type":"0","parent_station":""},
{"stop_id":"10485","stop_code":"10485","stop_name":"30th St & Enterprise St","stop_desc":"","stop_lat":"  39.811096","stop_lon":" -86.031940","zone_id":"","stop_url":"","location_type":"0","parent_station":""},
{"stop_id":"10486","stop_code":"10486","stop_name":"30th St & Huber St","stop_desc":"","stop_lat":"  39.811061","stop_lon":" -86.029935","zone_id":"","stop_url":"","location_type":"0","parent_station":""},
{"stop_id":"10487","stop_code":"10487","stop_name":"30th St & Franklin Rd","stop_desc":"","stop_lat":"  39.811089","stop_lon":" -86.026266","zone_id":"","stop_url":"","location_type":"0","parent_station":""},
{"stop_id":"10488","stop_code":"10488","stop_name":"30th St & Private Dr","stop_desc":"","stop_lat":"  39.811170","stop_lon":" -86.024144","zone_id":"","stop_url":"","location_type":"0","parent_station":""},
{"stop_id":"10489","stop_code":"10489","stop_name":"30th St & Tobey Dr","stop_desc":"","stop_lat":"  39.811198","stop_lon":" -86.018517","zone_id":"","stop_url":"","location_type":"0","parent_station":""},
{"stop_id":"10490","stop_code":"10490","stop_name":"30th St & Routiers Ave","stop_desc":"","stop_lat":"  39.811274","stop_lon":" -86.014174","zone_id":"","stop_url":"","location_type":"0","parent_station":""},
{"stop_id":"10491","stop_code":"10491","stop_name":"30th St & Private Dr","stop_desc":"","stop_lat":"  39.811262","stop_lon":" -86.011942","zone_id":"","stop_url":"","location_type":"0","parent_station":""},
{"stop_id":"10515","stop_code":"10515","stop_name":"Post Rd & 30th St","stop_desc":"","stop_lat":"  39.811823","stop_lon":" -86.009610","zone_id":"","stop_url":"","location_type":"0","parent_station":""},
{"stop_id":"10517","stop_code":"10517","stop_name":"33rd St & Post Rd","stop_desc":"","stop_lat":"  39.816705","stop_lon":" -86.010389","zone_id":"","stop_url":"","location_type":"0","parent_station":""},
{"stop_id":"10519","stop_code":"10519","stop_name":"33rd St & Mesilla Ct","stop_desc":"","stop_lat":"  39.816649","stop_lon":" -86.015266","zone_id":"","stop_url":"","location_type":"0","parent_station":""},
{"stop_id":"10520","stop_code":"10520","stop_name":"33rd St & Raton Ct","stop_desc":"","stop_lat":"  39.816598","stop_lon":" -86.017807","zone_id":"","stop_url":"","location_type":"0","parent_station":""},
{"stop_id":"10521","stop_code":"10521","stop_name":"33rd St - Crossroads","stop_desc":"","stop_lat":"  39.816545","stop_lon":" -86.022531","zone_id":"","stop_url":"","location_type":"0","parent_station":""},
{"stop_id":"10522","stop_code":"10522","stop_name":"33rd St & Franklin Rd","stop_desc":"","stop_lat":"  39.816488","stop_lon":" -86.025845","zone_id":"","stop_url":"","location_type":"0","parent_station":""},
{"stop_id":"10523","stop_code":"10523","stop_name":"Franklin Rd & Bellwood Dr","stop_desc":"","stop_lat":"  39.814184","stop_lon":" -86.026826","zone_id":"","stop_url":"","location_type":"0","parent_station":""},
{"stop_id":"10524","stop_code":"10524","stop_name":"Franklin Rd & 30th St","stop_desc":"","stop_lat":"  39.811889","stop_lon":" -86.026814","zone_id":"","stop_url":"","location_type":"0","parent_station":""},
{"stop_id":"10530","stop_code":"10530","stop_name":"Post Rd & 42nd St","stop_desc":"","stop_lat":"  39.834492","stop_lon":" -86.010221","zone_id":"","stop_url":"","location_type":"0","parent_station":""},
{"stop_id":"10531","stop_code":"10531","stop_name":"30th St & Huber St","stop_desc":"","stop_lat":"  39.811132","stop_lon":" -86.030064","zone_id":"","stop_url":"","location_type":"0","parent_station":""},
{"stop_id":"10532","stop_code":"10532","stop_name":"30th St & Enterprise St","stop_desc":"","stop_lat":"  39.811205","stop_lon":" -86.031421","zone_id":"","stop_url":"","location_type":"0","parent_station":""},
{"stop_id":"10533","stop_code":"10533","stop_name":"30th St & Richardt Ave","stop_desc":"","stop_lat":"  39.811070","stop_lon":" -86.036008","zone_id":"","stop_url":"","location_type":"0","parent_station":""},
{"stop_id":"10534","stop_code":"10534","stop_name":"30th St & Elmhurst Dr","stop_desc":"","stop_lat":"  39.811087","stop_lon":" -86.040049","zone_id":"","stop_url":"","location_type":"0","parent_station":""},
{"stop_id":"10535","stop_code":"10535","stop_name":"30th St & Shadeland Ave","stop_desc":"","stop_lat":"  39.811152","stop_lon":" -86.045381","zone_id":"","stop_url":"","location_type":"0","parent_station":""},
{"stop_id":"10536","stop_code":"10536","stop_name":"Shadeland Ave & Private Dr","stop_desc":"","stop_lat":"  39.813611","stop_lon":" -86.045601","zone_id":"","stop_url":"","location_type":"0","parent_station":""},
{"stop_id":"10537","stop_code":"10537","stop_name":"Shadeland Ave & 33rd St","stop_desc":"","stop_lat":"  39.816120","stop_lon":" -86.045636","zone_id":"","stop_url":"","location_type":"0","parent_station":""},
{"stop_id":"10538","stop_code":"10538","stop_name":"34th St & Shadeland Ave","stop_desc":"","stop_lat":"  39.818462","stop_lon":" -86.046404","zone_id":"","stop_url":"","location_type":"0","parent_station":""},
{"stop_id":"10539","stop_code":"10539","stop_name":"34th St & Edmondson Ave","stop_desc":"","stop_lat":"  39.818408","stop_lon":" -86.051046","zone_id":"","stop_url":"","location_type":"0","parent_station":""},
{"stop_id":"10540","stop_code":"10540","stop_name":"34th St & Elizabeth St","stop_desc":"","stop_lat":"  39.818409","stop_lon":" -86.052392","zone_id":"","stop_url":"","location_type":"0","parent_station":""},
{"stop_id":"10541","stop_code":"10541","stop_name":"34th St & Private Dr","stop_desc":"","stop_lat":"  39.818404","stop_lon":" -86.054866","zone_id":"","stop_url":"","location_type":"0","parent_station":""},
{"stop_id":"10542","stop_code":"10542","stop_name":"34th St & Arlington Ave","stop_desc":"","stop_lat":"  39.818388","stop_lon":" -86.065332","zone_id":"","stop_url":"","location_type":"0","parent_station":""},
{"stop_id":"10543","stop_code":"10543","stop_name":"34th St & Private Dr","stop_desc":"","stop_lat":"  39.818400","stop_lon":" -86.068155","zone_id":"","stop_url":"","location_type":"0","parent_station":""},
{"stop_id":"10544","stop_code":"10544","stop_name":"34th St & Layman Ave","stop_desc":"","stop_lat":"  39.818386","stop_lon":" -86.072801","zone_id":"","stop_url":"","location_type":"0","parent_station":""},
{"stop_id":"10545","stop_code":"10545","stop_name":"34th St & Downey Ave","stop_desc":"","stop_lat":"  39.818402","stop_lon":" -86.077604","zone_id":"","stop_url":"","location_type":"0","parent_station":""},
{"stop_id":"10546","stop_code":"10546","stop_name":"34th St & Butler Ave","stop_desc":"","stop_lat":"  39.818412","stop_lon":" -86.080445","zone_id":"","stop_url":"","location_type":"0","parent_station":""},
{"stop_id":"10550","stop_code":"10550","stop_name":"34th St & Emerson Ave","stop_desc":"","stop_lat":"  39.818419","stop_lon":" -86.082901","zone_id":"","stop_url":"","location_type":"0","parent_station":""},
{"stop_id":"10551","stop_code":"10551","stop_name":"34th St & Bancroft St","stop_desc":"","stop_lat":"  39.818407","stop_lon":" -86.084870","zone_id":"","stop_url":"","location_type":"0","parent_station":""},
{"stop_id":"10552","stop_code":"10552","stop_name":"34th St & Dequincy St","stop_desc":"","stop_lat":"  39.818381","stop_lon":" -86.087543","zone_id":"","stop_url":"","location_type":"0","parent_station":""},
{"stop_id":"10553","stop_code":"10553","stop_name":"34th St & Wallace Ave","stop_desc":"","stop_lat":"  39.818371","stop_lon":" -86.088768","zone_id":"","stop_url":"","location_type":"0","parent_station":""},
{"stop_id":"10555","stop_code":"10555","stop_name":"34th St & Drexel Ave","stop_desc":"","stop_lat":"  39.818333","stop_lon":" -86.092417","zone_id":"","stop_url":"","location_type":"0","parent_station":""},
{"stop_id":"10557","stop_code":"10557","stop_name":"34th St & Colorado Ave","stop_desc":"","stop_lat":"  39.818313","stop_lon":" -86.094709","zone_id":"","stop_url":"","location_type":"0","parent_station":""},
{"stop_id":"10559","stop_code":"10559","stop_name":"34th St & Forest Manor Ave","stop_desc":"","stop_lat":"  39.818286","stop_lon":" -86.097678","zone_id":"","stop_url":"","location_type":"0","parent_station":""},
{"stop_id":"10560","stop_code":"10560","stop_name":"34th St & Chester Dr","stop_desc":"","stop_lat":"  39.818255","stop_lon":" -86.100013","zone_id":"","stop_url":"","location_type":"0","parent_station":""},
{"stop_id":"10561","stop_code":"10561","stop_name":"34th St & Sherman Dr","stop_desc":"","stop_lat":"  39.818238","stop_lon":" -86.102484","zone_id":"","stop_url":"","location_type":"0","parent_station":""},
{"stop_id":"10562","stop_code":"10562","stop_name":"34th St & Station St","stop_desc":"","stop_lat":"  39.818223","stop_lon":" -86.104157","zone_id":"","stop_url":"","location_type":"0","parent_station":""},
{"stop_id":"10564","stop_code":"10564","stop_name":"34th St & Olney St","stop_desc":"","stop_lat":"  39.818221","stop_lon":" -86.106880","zone_id":"","stop_url":"","location_type":"0","parent_station":""},
{"stop_id":"10565","stop_code":"10565","stop_name":"34th St & Adams St","stop_desc":"","stop_lat":"  39.818208","stop_lon":" -86.108229","zone_id":"","stop_url":"","location_type":"0","parent_station":""},
{"stop_id":"10566","stop_code":"10566","stop_name":"34th St & Lasalle St","stop_desc":"","stop_lat":"  39.818185","stop_lon":" -86.109806","zone_id":"","stop_url":"","location_type":"0","parent_station":""},
{"stop_id":"10567","stop_code":"10567","stop_name":"34th St & Dearborn St","stop_desc":"","stop_lat":"  39.818190","stop_lon":" -86.112031","zone_id":"","stop_url":"","location_type":"0","parent_station":""},
{"stop_id":"10568","stop_code":"10568","stop_name":"34th St & Parker Ave","stop_desc":"","stop_lat":"  39.818191","stop_lon":" -86.113256","zone_id":"","stop_url":"","location_type":"0","parent_station":""},
{"stop_id":"10569","stop_code":"10569","stop_name":"34th St & Oxford St","stop_desc":"","stop_lat":"  39.818190","stop_lon":" -86.114872","zone_id":"","stop_url":"","location_type":"0","parent_station":""},
{"stop_id":"10571","stop_code":"10571","stop_name":"34th St & Temple Ave","stop_desc":"","stop_lat":"  39.818180","stop_lon":" -86.118247","zone_id":"","stop_url":"","location_type":"0","parent_station":""},
{"stop_id":"10572","stop_code":"10572","stop_name":"34th St & Tacoma Ave","stop_desc":"","stop_lat":"  39.818163","stop_lon":" -86.119881","zone_id":"","stop_url":"","location_type":"0","parent_station":""},
{"stop_id":"10573","stop_code":"10573","stop_name":"34th St & Keystone Ave","stop_desc":"","stop_lat":"  39.818146","stop_lon":" -86.121992","zone_id":"","stop_url":"","location_type":"0","parent_station":""},
{"stop_id":"10575","stop_code":"10575","stop_name":"34th St & Baltimore Ave","stop_desc":"","stop_lat":"  39.818147","stop_lon":" -86.123843","zone_id":"","stop_url":"","location_type":"0","parent_station":""},
{"stop_id":"10576","stop_code":"10576","stop_name":"34th St & Nicholas Ave","stop_desc":"","stop_lat":"  39.818122","stop_lon":" -86.126773","zone_id":"","stop_url":"","location_type":"0","parent_station":""},
{"stop_id":"10577","stop_code":"10577","stop_name":"34th St & Orchard Ave","stop_desc":"","stop_lat":"  39.818120","stop_lon":" -86.128026","zone_id":"","stop_url":"","location_type":"0","parent_station":""},
{"stop_id":"10578","stop_code":"10578","stop_name":"34th St & Schofield Ave","stop_desc":"","stop_lat":"  39.818133","stop_lon":" -86.129536","zone_id":"","stop_url":"","location_type":"0","parent_station":""},
{"stop_id":"10579","stop_code":"10579","stop_name":"34th St & Ralston Ave","stop_desc":"","stop_lat":"  39.818124","stop_lon":" -86.130970","zone_id":"","stop_url":"","location_type":"0","parent_station":""},
{"stop_id":"10580","stop_code":"10580","stop_name":"34th St & Hovey St","stop_desc":"","stop_lat":"  39.818113","stop_lon":" -86.132465","zone_id":"","stop_url":"","location_type":"0","parent_station":""},
{"stop_id":"10581","stop_code":"10581","stop_name":"Sutherland Ave & 34th St","stop_desc":"","stop_lat":"  39.817777","stop_lon":" -86.134820","zone_id":"","stop_url":"","location_type":"0","parent_station":""},
{"stop_id":"10582","stop_code":"10582","stop_name":"Sutherland Ave & A J Brown Ave","stop_desc":"","stop_lat":"  39.816715","stop_lon":" -86.135372","zone_id":"","stop_url":"","location_type":"0","parent_station":""},
{"stop_id":"10583","stop_code":"10583","stop_name":"Sutherland Ave & Winthrop Ave","stop_desc":"","stop_lat":"  39.815959","stop_lon":" -86.137666","zone_id":"","stop_url":"","location_type":"0","parent_station":""},
{"stop_id":"10584","stop_code":"10584","stop_name":"Sutherland Ave & Guilford Ave","stop_desc":"","stop_lat":"  39.815550","stop_lon":" -86.139002","zone_id":"","stop_url":"","location_type":"0","parent_station":""},
{"stop_id":"10585","stop_code":"10585","stop_name":"Sutherland Ave & Private Dr","stop_desc":"","stop_lat":"  39.814813","stop_lon":" -86.140634","zone_id":"","stop_url":"","location_type":"0","parent_station":""},
{"stop_id":"10586","stop_code":"10586","stop_name":"Sutherland Ave & 32nd St","stop_desc":"","stop_lat":"  39.813232","stop_lon":" -86.141182","zone_id":"","stop_url":"","location_type":"0","parent_station":""},
{"stop_id":"10587","stop_code":"10587","stop_name":"Sutherland Ave & 30th St","stop_desc":"","stop_lat":"  39.811009","stop_lon":" -86.141676","zone_id":"","stop_url":"","location_type":"0","parent_station":""},
{"stop_id":"10588","stop_code":"10588","stop_name":"30th St & Fall Creek Pkwy N Dr","stop_desc":"","stop_lat":"  39.810464","stop_lon":" -86.143409","zone_id":"","stop_url":"","location_type":"0","parent_station":""},
{"stop_id":"10589","stop_code":"10589","stop_name":"30th St & College Ave","stop_desc":"","stop_lat":"  39.810406","stop_lon":" -86.145477","zone_id":"","stop_url":"","location_type":"0","parent_station":""},
{"stop_id":"10591","stop_code":"10591","stop_name":"30th St & Ruckle St","stop_desc":"","stop_lat":"  39.810356","stop_lon":" -86.148257","zone_id":"","stop_url":"","location_type":"0","parent_station":""},
{"stop_id":"10593","stop_code":"10593","stop_name":"Central Ave & 30th St","stop_desc":"","stop_lat":"  39.810015","stop_lon":" -86.149664","zone_id":"","stop_url":"","location_type":"0","parent_station":""},
{"stop_id":"10594","stop_code":"10594","stop_name":"Central Ave & 29th St","stop_desc":"","stop_lat":"  39.808599","stop_lon":" -86.149654","zone_id":"","stop_url":"","location_type":"0","parent_station":""},
{"stop_id":"10595","stop_code":"10595","stop_name":"Central Ave & Fall Creek Pkwy N Dr","stop_desc":"","stop_lat":"  39.806356","stop_lon":" -86.149635","zone_id":"","stop_url":"","location_type":"0","parent_station":""},
{"stop_id":"10596","stop_code":"10596","stop_name":"Central Ave & 25th St","stop_desc":"","stop_lat":"  39.802829","stop_lon":" -86.149603","zone_id":"","stop_url":"","location_type":"0","parent_station":""},
{"stop_id":"10597","stop_code":"10597","stop_name":"Central Ave & 24th St","stop_desc":"","stop_lat":"  39.801291","stop_lon":" -86.149582","zone_id":"","stop_url":"","location_type":"0","parent_station":""},
{"stop_id":"10598","stop_code":"10598","stop_name":"Central Ave & 23rd St","stop_desc":"","stop_lat":"  39.799468","stop_lon":" -86.149580","zone_id":"","stop_url":"","location_type":"0","parent_station":""},
{"stop_id":"10599","stop_code":"10599","stop_name":"Central Ave & 22nd St","stop_desc":"","stop_lat":"  39.797138","stop_lon":" -86.149592","zone_id":"","stop_url":"","location_type":"0","parent_station":""},
{"stop_id":"10600","stop_code":"10600","stop_name":"Central Ave & 21st St","stop_desc":"","stop_lat":"  39.795930","stop_lon":" -86.149566","zone_id":"","stop_url":"","location_type":"0","parent_station":""},
{"stop_id":"10601","stop_code":"10601","stop_name":"Central Ave & 20th St","stop_desc":"","stop_lat":"  39.794033","stop_lon":" -86.149577","zone_id":"","stop_url":"","location_type":"0","parent_station":""},
{"stop_id":"10604","stop_code":"10604","stop_name":"Fort Wayne Ave & New Jersey St","stop_desc":"","stop_lat":"  39.780519","stop_lon":" -86.150102","zone_id":"","stop_url":"","location_type":"0","parent_station":""},
{"stop_id":"10605","stop_code":"10605","stop_name":"Fort Wayne Ave & 09th St","stop_desc":"","stop_lat":"  39.779297","stop_lon":" -86.151324","zone_id":"","stop_url":"","location_type":"0","parent_station":""},
{"stop_id":"10606","stop_code":"10606","stop_name":"Alabama St & Walnut St","stop_desc":"","stop_lat":"  39.776819","stop_lon":" -86.152414","zone_id":"","stop_url":"","location_type":"0","parent_station":""},
{"stop_id":"10607","stop_code":"10607","stop_name":"Alabama St & North St","stop_desc":"","stop_lat":"  39.775587","stop_lon":" -86.152401","zone_id":"","stop_url":"","location_type":"0","parent_station":""},
{"stop_id":"10608","stop_code":"10608","stop_name":"Alabama St & Michigan St","stop_desc":"","stop_lat":"  39.773527","stop_lon":" -86.152479","zone_id":"","stop_url":"","location_type":"0","parent_station":""},
{"stop_id":"10611","stop_code":"10611","stop_name":"Central Ave & Fall Creek Pkwy S Dr","stop_desc":"","stop_lat":"  39.805006","stop_lon":" -86.149604","zone_id":"","stop_url":"","location_type":"0","parent_station":""},
{"stop_id":"10617","stop_code":"10617","stop_name":"Sutherland Ave & A J Brown Ave","stop_desc":"","stop_lat":"  39.816358","stop_lon":" -86.136017","zone_id":"","stop_url":"","location_type":"0","parent_station":""},
{"stop_id":"10618","stop_code":"10618","stop_name":"33rd St & Downey Ave","stop_desc":"","stop_lat":"  39.815520","stop_lon":" -86.078320","zone_id":"","stop_url":"","location_type":"0","parent_station":""},
{"stop_id":"10700","stop_code":"10700","stop_name":"Fort Wayne Ave & Sahm St","stop_desc":"","stop_lat":"  39.779279","stop_lon":" -86.151182","zone_id":"","stop_url":"","location_type":"0","parent_station":""},
{"stop_id":"10701","stop_code":"10701","stop_name":"Fort Wayne Ave & New Jersey St","stop_desc":"","stop_lat":"  39.780401","stop_lon":" -86.150087","zone_id":"","stop_url":"","location_type":"0","parent_station":""},
{"stop_id":"10702","stop_code":"10702","stop_name":"10th St & East St","stop_desc":"","stop_lat":"  39.780753","stop_lon":" -86.148570","zone_id":"","stop_url":"","location_type":"0","parent_station":""},
{"stop_id":"10703","stop_code":"10703","stop_name":"10th St & College Ave","stop_desc":"","stop_lat":"  39.780651","stop_lon":" -86.145321","zone_id":"","stop_url":"","location_type":"0","parent_station":""},
{"stop_id":"10704","stop_code":"10704","stop_name":"10th St & Massachusetts Ave","stop_desc":"","stop_lat":"  39.781159","stop_lon":" -86.142549","zone_id":"","stop_url":"","location_type":"0","parent_station":""},
{"stop_id":"10706","stop_code":"10706","stop_name":"10th St & Highland Ave","stop_desc":"","stop_lat":"  39.781175","stop_lon":" -86.137397","zone_id":"","stop_url":"","location_type":"0","parent_station":""},
{"stop_id":"10707","stop_code":"10707","stop_name":"10th St & Oriental St","stop_desc":"","stop_lat":"  39.781231","stop_lon":" -86.135576","zone_id":"","stop_url":"","location_type":"0","parent_station":""},
{"stop_id":"10708","stop_code":"10708","stop_name":"10th St & Arsenal Ave","stop_desc":"","stop_lat":"  39.781245","stop_lon":" -86.133544","zone_id":"","stop_url":"","location_type":"0","parent_station":""},
{"stop_id":"10709","stop_code":"10709","stop_name":"10th St & Newman St","stop_desc":"","stop_lat":"  39.781250","stop_lon":" -86.131680","zone_id":"","stop_url":"","location_type":"0","parent_station":""},
{"stop_id":"10711","stop_code":"10711","stop_name":"10th St & Woodruff Pl Middle D","stop_desc":"","stop_lat":"  39.781270","stop_lon":" -86.128691","zone_id":"","stop_url":"","location_type":"0","parent_station":""},
{"stop_id":"10712","stop_code":"10712","stop_name":"10th St & Woodruff Pl E Dr","stop_desc":"","stop_lat":"  39.781284","stop_lon":" -86.127175","zone_id":"","stop_url":"","location_type":"0","parent_station":""},
{"stop_id":"10713","stop_code":"10713","stop_name":"10th St & Jefferson Ave","stop_desc":"","stop_lat":"  39.781329","stop_lon":" -86.123443","zone_id":"","stop_url":"","location_type":"0","parent_station":""},
{"stop_id":"10714","stop_code":"10714","stop_name":"10th St & Keystone Ave","stop_desc":"","stop_lat":"  39.781291","stop_lon":" -86.121909","zone_id":"","stop_url":"","location_type":"0","parent_station":""},
{"stop_id":"10716","stop_code":"10716","stop_name":"10th St & Temple Ave","stop_desc":"","stop_lat":"  39.781288","stop_lon":" -86.118661","zone_id":"","stop_url":"","location_type":"0","parent_station":""},
{"stop_id":"10717","stop_code":"10717","stop_name":"10th St & Rural St","stop_desc":"","stop_lat":"  39.781330","stop_lon":" -86.116836","zone_id":"","stop_url":"","location_type":"0","parent_station":""},
{"stop_id":"10718","stop_code":"10718","stop_name":"10th St & Parker Ave","stop_desc":"","stop_lat":"  39.781345","stop_lon":" -86.114470","zone_id":"","stop_url":"","location_type":"0","parent_station":""},
{"stop_id":"10719","stop_code":"10719","stop_name":"10th St & Gray St","stop_desc":"","stop_lat":"  39.781357","stop_lon":" -86.112057","zone_id":"","stop_url":"","location_type":"0","parent_station":""},
{"stop_id":"10720","stop_code":"10720","stop_name":"10th St & Lasalle St","stop_desc":"","stop_lat":"  39.781368","stop_lon":" -86.109965","zone_id":"","stop_url":"","location_type":"0","parent_station":""},
{"stop_id":"10722","stop_code":"10722","stop_name":"10th St & Olney St","stop_desc":"","stop_lat":"  39.781376","stop_lon":" -86.106450","zone_id":"","stop_url":"","location_type":"0","parent_station":""},
{"stop_id":"10724","stop_code":"10724","stop_name":"10th St & Kealing Ave","stop_desc":"","stop_lat":"  39.781383","stop_lon":" -86.104407","zone_id":"","stop_url":"","location_type":"0","parent_station":""},
{"stop_id":"10725","stop_code":"10725","stop_name":"10th St & Bradley Ave","stop_desc":"","stop_lat":"  39.781398","stop_lon":" -86.101365","zone_id":"","stop_url":"","location_type":"0","parent_station":""},
{"stop_id":"10726","stop_code":"10726","stop_name":"10th St & Denny St","stop_desc":"","stop_lat":"  39.781401","stop_lon":" -86.099750","zone_id":"","stop_url":"","location_type":"0","parent_station":""},
{"stop_id":"10727","stop_code":"10727","stop_name":"10th St & Grant Ave","stop_desc":"","stop_lat":"  39.781419","stop_lon":" -86.097782","zone_id":"","stop_url":"","location_type":"0","parent_station":""},
{"stop_id":"10729","stop_code":"10729","stop_name":"10th St & Euclid Ave","stop_desc":"","stop_lat":"  39.781409","stop_lon":" -86.095366","zone_id":"","stop_url":"","location_type":"0","parent_station":""},
{"stop_id":"10730","stop_code":"10730","stop_name":"10th St & Linwood Ave","stop_desc":"","stop_lat":"  39.781434","stop_lon":" -86.093114","zone_id":"","stop_url":"","location_type":"0","parent_station":""},
{"stop_id":"10731","stop_code":"10731","stop_name":"10th St & Bosart Ave","stop_desc":"","stop_lat":"  39.781464","stop_lon":" -86.090730","zone_id":"","stop_url":"","location_type":"0","parent_station":""},
{"stop_id":"10733","stop_code":"10733","stop_name":"10th St & Dequincy St","stop_desc":"","stop_lat":"  39.781478","stop_lon":" -86.087695","zone_id":"","stop_url":"","location_type":"0","parent_station":""},
{"stop_id":"10734","stop_code":"10734","stop_name":"10th St & Riley Ave","stop_desc":"","stop_lat":"  39.781486","stop_lon":" -86.086254","zone_id":"","stop_url":"","location_type":"0","parent_station":""},
{"stop_id":"10736","stop_code":"10736","stop_name":"10th St & Emerson Ave","stop_desc":"","stop_lat":"  39.781501","stop_lon":" -86.083725","zone_id":"","stop_url":"","location_type":"0","parent_station":""},
{"stop_id":"10738","stop_code":"10738","stop_name":"10th St & Butler Ave","stop_desc":"","stop_lat":"  39.781514","stop_lon":" -86.080676","zone_id":"","stop_url":"","location_type":"0","parent_station":""},
{"stop_id":"10739","stop_code":"10739","stop_name":"10th St & Hawthorne Ln","stop_desc":"","stop_lat":"  39.781521","stop_lon":" -86.078715","zone_id":"","stop_url":"","location_type":"0","parent_station":""},
{"stop_id":"10740","stop_code":"10740","stop_name":"10th St & Irvington Ave","stop_desc":"","stop_lat":"  39.781531","stop_lon":" -86.076733","zone_id":"","stop_url":"","location_type":"0","parent_station":""},
{"stop_id":"10741","stop_code":"10741","stop_name":"Ritter Ave & 10th St","stop_desc":"","stop_lat":"  39.781956","stop_lon":" -86.073690","zone_id":"","stop_url":"","location_type":"0","parent_station":""},
{"stop_id":"10742","stop_code":"10742","stop_name":"Ritter Ave -1200 N","stop_desc":"","stop_lat":"  39.783439","stop_lon":" -86.073695","zone_id":"","stop_url":"","location_type":"0","parent_station":""},
{"stop_id":"10743","stop_code":"10743","stop_name":"Ritter Ave & 13th St","stop_desc":"","stop_lat":"  39.785133","stop_lon":" -86.073712","zone_id":"","stop_url":"","location_type":"0","parent_station":""},
{"stop_id":"10744","stop_code":"10744","stop_name":"1450 N Ritter Ave - Community Hosp East","stop_desc":"","stop_lat":"  39.787406","stop_lon":" -86.073740","zone_id":"","stop_url":"","location_type":"0","parent_station":""},
{"stop_id":"10745","stop_code":"10745","stop_name":"Ritter Ave & 16th St","stop_desc":"","stop_lat":"  39.788721","stop_lon":" -86.073744","zone_id":"","stop_url":"","location_type":"0","parent_station":""},
{"stop_id":"10747","stop_code":"10747","stop_name":"16th St & Lesley Ave","stop_desc":"","stop_lat":"  39.788885","stop_lon":" -86.071546","zone_id":"","stop_url":"","location_type":"0","parent_station":""},
{"stop_id":"10748","stop_code":"10748","stop_name":"16th St & Graham Ave","stop_desc":"","stop_lat":"  39.788895","stop_lon":" -86.069254","zone_id":"","stop_url":"","location_type":"0","parent_station":""},